,charger_ID,city,address,provider,latitude,longitude,operator,type,power,zipcode
0,NLALLEGO006110,Amsterdam,Hobbemakade 121,ALLEGO,52.3502668,4.8860099,,FastCharger,50,1071 XW
1,NLALLEGO006001,Amsterdam,Transformatorweg 28,ALLEGO,52.3923306,4.8527822,,FastCharger,50,1014 AK
2,NLALLEGO007904,Amsterdam,Europaboulevard 10,ALLEGO,52.3336597,4.8886357,,FastCharger,50,1083 AD
3,NLALLEGO006000,Amsterdam,Transformatorweg 28,ALLEGO,52.3923306,4.8527822,,FastCharger,50,1014 AK
4,EVB-DC140100001,Amsterdam,Anthony Fokkerweg 2,EVBOX,52.343528,4.84199,,FastCharger,50,1059 CM
5,NLALLEGO001023,Amsterdam,Overschiestraat 172,ALLEGO,52.3461229,4.8390387,,FastCharger,50,1062 XK
6,EVB-DC175000001,Amsterdam,Anthony Fokkerweg 2,EVBOX,52.343528,4.84199,,FastCharger,50,1059 CM
7,NLALLEGO006003,Amsterdam,Strawinskylaan 6,ALLEGO,52.3412158,4.8747777,,FastCharger,50,1077 XZ
8,NLALLEGO007903,Amsterdam,Europaboulevard 10,ALLEGO,52.3336597,4.8886357,,FastCharger,50,1083 AD
9,EVB-DC175200001,Amsterdam,Anthony Fokkerweg 2,EVBOX,52.343528,4.84199,,FastCharger,50,1059 CM
10,EVB-DC306000001,Amsterdam,Anthony Fokkerweg 2,EVBOX,52.343528,4.84199,,FastCharger,50,1059 CM
11,NLALLEGO001020,Amsterdam,Stationsplein 51 (Alleen TTO Taxi's),ALLEGO,52.3798109,4.8964061,,FastCharger,50,1012 AB
12,NLALLEGO001021,Amsterdam,Hobbemakade 121,ALLEGO,52.3502668,4.8860099,,FastCharger,50,1071 XW
13,EVB-DC305800001,Amsterdam,Anthony Fokkerweg 2,EVBOX,52.343528,4.84199,,FastCharger,50,1059 CM
14,EVB-DC191189000IR0,Amsterdam,Pauwenpad 1,EVBOX,52.349234,4.9165807,,FastCharger,50,1097 DX
15,EVB-DC306100001,Amsterdam,Anthony Fokkerweg 2,EVBOX,52.343528,4.84199,,FastCharger,175,1059 CM
16,EVB-DC175300001,Amsterdam,Anthony Fokkerweg 2,EVBOX,52.343528,4.84199,,FastCharger,175,1059 CM
17,EVB-DC318200001,Amsterdam,Anthony Fokkerweg 2,EVBOX,52.343528,4.84199,,FastCharger,175,1059 CM
18,EVB-DC430200001,Amsterdam,Anthony Fokkerweg 2,EVBOX,52.343528,4.84199,,FastCharger,175,1059 CM
19,NLALLEGO007907,Amsterdam,Tijnmuiden,ALLEGO,52.3915796,4.7790729,,FastCharger,50,1046 AK
20,NLALLEGO001024,Amsterdam,Overschiestraat 172,ALLEGO,52.3461229,4.8390387,,FastCharger,50,1062 XK
21,NLALLEGO006109,Amsterdam,Stationsplein 51 (Alleen TTO Taxi's),ALLEGO,52.3798109,4.8964061,,FastCharger,50,1012 AB
22,NLALLEGO001022,Amsterdam,Hobbemakade 121,ALLEGO,52.3502668,4.8860099,,FastCharger,50,1071 XW
23,EVB-DC175700001,Amsterdam,Anthony Fokkerweg 2,EVBOX,52.343528,4.84199,,FastCharger,175,1059 CM
24,NLALLEGO001019,Amsterdam,Stationsplein 51 (Alleen TTO Taxi's),ALLEGO,52.3798109,4.8964061,,FastCharger,50,1012 AB
25,,,Beverwijkstraat 3,ALLEGO,0.0,0.0,,FastCharger,50,
26,00B864B6-639C-4216-98AE-55217FCF0443,Amsterdam,Tolstraat 113,TotalEnergie,52.352433,4.904339,TotalEnergie,AC,22,1074 VH
27,00C10E56-7295-474E-A4FD-7851E8862FEE,Amsterdam,Vespuccistraat 117,TotalEnergie,52.373156,4.852493,TotalEnergie,AC,22,1056 SL
28,00F130B2-37F8-4C8F-8753-E8B6AF10A676,Amsterdam,Copernicusstraat 23,TotalEnergie,52.354312,4.936373,TotalEnergie,AC,22,1098 JC
29,011db8a0-2aef-4420-a310-3c5032a09949,Weesp,Utrechtseweg 110A,TotalEnergie,52.29754,5.05765,TotalEnergie,AC,22,1381 GT
30,01c4b719-7f1a-4c1b-8017-60ab03ba7fe7,Amsterdam,Paramariboplein 2,TotalEnergie,52.359328,4.854729,TotalEnergie,AC,22,1058 AS
31,021EC2AB-3275-4AC6-BC6A-5D2756FC1148,Amsterdam,Savelbos 1,TotalEnergie,52.400466,4.944695,TotalEnergie,AC,22,1025 BE
32,02B58930-46B5-4C0A-9CE0-B831FFCEECBF,Amsterdam,Barbusselaan 143,TotalEnergie,52.320715,4.944241,TotalEnergie,AC,22,1102 TT
33,02df80e8-4303-4d34-961f-5db75e5f9f5d,Amsterdam,Andreas Bonnstraat 6,TotalEnergie,52.359979,4.911269,TotalEnergie,AC,22,1091 AX
34,036bd2c8-e407-4fee-b941-34d03a6efa19,Amsterdam,Alexander Boersstraat 25,TotalEnergie,52.358073,4.877701,TotalEnergie,AC,22,1071 KV
35,0382ae79-ec60-447e-ab04-49c383339ee8,Amsterdam,Cornelis Zillesenlaan 64,TotalEnergie,52.361994,4.980696,TotalEnergie,AC,22,1086 ZK
36,038e4a0e-893a-42fd-9d7d-db4158da4bce,Weesp,Rembrandt van Rijnstraat 31,TotalEnergie,52.31141,5.04051,TotalEnergie,AC,22,1382 AN
37,03cddaff-ad36-4dea-80df-0e51cd435980,Amsterdam,Langswater 401,TotalEnergie,52.356617,4.788988,TotalEnergie,AC,22,1069 ED
38,0412a148-d159-4330-89cc-80b378d64163,Amsterdam,Ruysdaelkade 265,TotalEnergie,52.349144,4.886739,TotalEnergie,AC,22,1072 AZ
39,04321b17-ca7f-492f-b81b-8ef53294e3f5,Amsterdam,Quellijnstraat 116,TotalEnergie,52.356594,4.893154,TotalEnergie,AC,22,1073 XL
40,0495a22c-0364-47ad-8f01-8c168a9e0528,Amsterdam,Kormelinkweg 16,TotalEnergie,52.316289,4.917693,TotalEnergie,AC,22,1104 NS
41,04A9EE47-2B8F-400A-86E5-7B0EF0B9832F,Amsterdam,Warmondstraat 139,TotalEnergie,52.353607,4.849541,TotalEnergie,AC,22,1058 KV
42,04c8749b-fa46-4edf-87c4-68a0a5dd54e3,Amsterdam,Joan Melchior Kemperstraat 57,TotalEnergie,52.384864,4.873074,TotalEnergie,AC,22,1051 TK
43,04CF6967-6C8E-4B76-BD39-EEC8C8A61BAD,Amsterdam,Tweede Jan Steenstraat 115 IV,TotalEnergie,52.357166,4.903782,TotalEnergie,AC,22,1074 CN
44,04d76dc7-6e06-43df-a06f-f96f25e91ab9,Amsterdam,Wigbolt Ripperdastraat 3,TotalEnergie,52.381683,4.805972,TotalEnergie,AC,22,1067 EE
45,04F6E32A-B9CB-47C0-AF39-85A9A124F6AC,Amsterdam,Nieuwlandhof 184,TotalEnergie,52.30007,4.959537,TotalEnergie,AC,22,1106 RT
46,04FF73A5-E677-4015-B555-DA474B4956C1,Amsterdam,Dantestraat 184,TotalEnergie,52.325777,4.94938,TotalEnergie,AC,22,1102 ZR
47,05b94cf2-78e0-4a66-b262-4e793a23516c,Amsterdam,Schelvisch Hoofd 50,TotalEnergie,52.422257,4.894035,TotalEnergie,AC,22,1035 JW
48,0615a7d9-8d88-45a3-b5b0-4e8499c9117a,Amsterdam,Jan Hanzenstraat 106,TotalEnergie,52.367726,4.864463,TotalEnergie,AC,22,1053 SV
49,065028FD-EAF8-41E0-A1D6-587C2DA9279C,Amsterdam,Faas Wilkesstraat 101,TotalEnergie,52.374558,4.966152,TotalEnergie,AC,22,1095 MD
50,068B70D2-17D4-4096-B038-71692916C4DB,Amsterdam,Albatrospad 1,TotalEnergie,52.387397,4.923087,TotalEnergie,AC,22,1021 TR
51,0751f187-462b-4cf5-b6ec-7c350b9be085,Amsterdam,Achtersteven 26,TotalEnergie,52.414484,4.920088,TotalEnergie,AC,22,1034 VB
52,0791AD70-3C22-4FA7-8D55-B534F2662570,Amsterdam,1e Kekerstraat 2,TotalEnergie,52.315166,4.979728,TotalEnergie,AC,22,1104 VA
53,07d733f5-8185-471f-9036-e6dfeeebe742,Amsterdam,Hertspieghelweg 86,TotalEnergie,52.381891,4.85108,TotalEnergie,AC,22,1055 KT
54,07e90e00-e10b-4056-ac48-22ac1346d7fb,Amsterdam,Jacob Obrechtstraat 7,TotalEnergie,52.357591,4.874377,TotalEnergie,AC,22,1071 KC
55,085b0f03-0c13-4e9f-8bac-140c79a4ffa8,Amsterdam,Van Ostadestraat 58,TotalEnergie,52.351705,4.888687,TotalEnergie,AC,22,1072 TA
56,08b406a6-37a8-465a-9ef6-0cb67dd7f9d3,Amsterdam,Louis de Visserstraat 29,TotalEnergie,52.353578,4.794903,TotalEnergie,AC,22,1069 RG
57,08f07d94-a20a-481a-bf33-fe55fd654523,Amsterdam,Milletstraat 10,TotalEnergie,52.346058,4.87104,TotalEnergie,AC,22,1077 ZD
58,0920E3EB-F69F-4384-8881-65EDC48EA3BA,Amsterdam,Bernard Shawsingel 180,TotalEnergie,52.320879,4.9454,TotalEnergie,AC,22,1102 VD
59,0953208b-8ec3-41a2-b2e2-51ff45468f1b,Amsterdam,Borneostraat 23,TotalEnergie,52.36453,4.93721,TotalEnergie,AC,22,1094 CG
60,096D47B1-58D3-43D3-89D3-A89636D6F5C8,Weesp,Aquamarin 66,TotalEnergie,52.31007,5.02478,TotalEnergie,AC,22,1382 KM
61,09903b8b-8b7d-4181-b9a3-e5dcfc9d2c4b,Amsterdam,Soetendaal 62,TotalEnergie,52.326546,4.863405,TotalEnergie,AC,22,1081 BP
62,0ADC9BD1-FF45-4137-B7C4-A3309CD531CF,Amsterdam,Bilderdijkkade 48,TotalEnergie,52.36867,4.869146,TotalEnergie,AC,22,1053 VG
63,0AE7D5BC-105B-483B-813D-4A8DB5BAB613,Amsterdam,Texelweg 93,TotalEnergie,52.393789,4.924622,TotalEnergie,AC,22,1025 XW
64,0b5e8d4c-7375-41af-a911-1a3d69a53ce5,Amsterdam,Brahmsstraat 4,TotalEnergie,52.348346,4.879153,TotalEnergie,AC,22,1077 HG
65,0B9D5ED6-613F-459A-95D2-A894AA9FB6FA,Amsterdam,Jan Pieter Heijestraat 44,TotalEnergie,52.365201,4.862422,TotalEnergie,AC,22,1053 GP
66,0bc50f0b-6b4a-452f-a1b8-ee3054c2f5ed,Amsterdam,Van Rappardstraat 1,TotalEnergie,52.378537,4.870853,TotalEnergie,AC,22,1051 HV
67,0c1a99d4-11d0-4d41-87a2-4f279a870ead,Amsterdam,Pieter Lastmankade 29,TotalEnergie,52.350493,4.863092,TotalEnergie,AC,22,1075 KK
68,0c555e30-2217-4e3f-b385-29c9db030e40,Amsterdam,C.J.K Van Aalststraat 49,TotalEnergie,52.373148,4.939188,TotalEnergie,AC,22,1019 JZ
69,0d1adbf0-e9d9-424b-929f-d4e4464504fd,Amsterdam,Schagerlaan 3,TotalEnergie,52.347879,4.923141,TotalEnergie,AC,22,1097 HN
70,0D982F60-BB40-41F1-A0AE-E24BF5660EA2,Amsterdam,Andersensingel 80,TotalEnergie,52.320979,4.941812,TotalEnergie,AC,22,1102 VP
71,0D9C54A4-9251-4221-AC77-A776CDA75C29,Amsterdam,Marco Polostraat 184,TotalEnergie,52.369492,4.855848,TotalEnergie,AC,22,1057 WX
72,0DA22D69-5AE4-4601-947C-D9A040E57DFA,Amsterdam,Courbetstraat 9,TotalEnergie,52.345133,4.870655,TotalEnergie,AC,22,1077 ZP
73,0dfd8261-77f6-42cb-8649-297f6abd95f9,Amsterdam,Hemonystraat 13,TotalEnergie,52.357777,4.902164,TotalEnergie,AC,22,1074 BL
74,0E4E3DF3-D965-4C1B-8995-1BADC6AF10F6,Amsterdam,Aristotelesstraat 19,TotalEnergie,52.373377,4.817102,TotalEnergie,AC,22,1064 LD
75,0E7AED0A-9ED8-4BA5-8A3C-1E43784CE995,Amsterdam,Eva Besnyöstraat 416,TotalEnergie,52.347191,5.013174,TotalEnergie,AC,22,1087 NH
76,0E927359-BA81-47C1-9797-0F73F85BA0B3,Amsterdam,Watteaustraat 54,TotalEnergie,52.345339,4.868494,TotalEnergie,AC,22,1077 ZN
77,0EB6F652-A45B-4DB8-8546-7399533B2E43,Amsterdam,Van Reigersbergenstraat 39,TotalEnergie,52.373902,4.870644,TotalEnergie,AC,22,1052 SP
78,0f39bb1c-f404-4429-82e5-579895bfc7d5,Weesp,Aquamarin 84,TotalEnergie,52.310235,5.023279,TotalEnergie,AC,22,1382 KN
79,0F50487D-3872-4229-AAAA-D643665A6D70,Amsterdam,Marnixkade 6,TotalEnergie,52.383441,4.881746,TotalEnergie,AC,22,1015 XM
80,0FA906B8-DE95-437C-8646-EF068221F36F,Amsterdam,Pieter Calandlaan 191,TotalEnergie,52.354693,4.813811,TotalEnergie,AC,22,1068 NC
81,1001704e-9d7d-4f73-bda8-91341da8f097,Amsterdam,Bottelarijstraat 291,TotalEnergie,52.368767,4.952076,TotalEnergie,AC,22,1019 VK
82,10BE785F-F05F-4297-B6D3-9FC1B541B95B,Amsterdam,Eerste Jan Steenstraat 86,TotalEnergie,52.354074,4.89107,TotalEnergie,AC,22,1072 NT
83,10f760d1-914f-44ff-b052-b716f91e4b63,Amsterdam,Schipbeekstraat 40,TotalEnergie,52.347138,4.897801,TotalEnergie,AC,22,1078 BM
84,11362009-C07D-47AD-ACF7-FFA3D24EE0A4,Amsterdam,Oranje Nassaulaan 24,TotalEnergie,52.354148,4.860177,TotalEnergie,AC,22,1075 AN
85,11c0b494-2720-44db-b9b0-c2a5d32062ec,Amsterdam,Louis Couperusstraat 87,TotalEnergie,52.375549,4.828178,TotalEnergie,AC,22,1064 CC
86,11c1ca0d-2943-4796-b1ac-30bc23b304d1,Amsterdam,Iwan Kantemanplein 60,TotalEnergie,52.350473,4.787544,TotalEnergie,AC,22,1060 RM
87,11EC39BD-9F8F-44BD-BC80-79777C41807B,Amsterdam,Akbarstraat 8,TotalEnergie,52.378689,4.841421,TotalEnergie,AC,22,1061 DZ
88,123EA9C2-A71F-49CF-A96A-55E97F73585D,Amsterdam,Okeghemstraat 28,TotalEnergie,52.350995,4.863073,TotalEnergie,AC,22,1075 PP
89,1323FFD9-323F-4F5B-8214-F768947A420B,Amsterdam,Willem de Zwijgerlaan 351,TotalEnergie,52.407894,4.857186,TotalEnergie,AC,22,1055 RB
90,13B85551-C721-4C43-82AE-4AACFEE08B73,Amsterdam,Dalsteindreef 96,TotalEnergie,52.32531,4.944111,TotalEnergie,AC,22,1102 WV
91,13F1392F-2842-496C-B385-EE5E9742C13C,Amsterdam,Spitskopstraat 2,TotalEnergie,52.355486,4.92031,TotalEnergie,AC,22,1092 XZ
92,1482e28a-d60c-457f-85e4-5ae48a698482,Amsterdam,Soetendaal 102,TotalEnergie,52.325331,4.863593,TotalEnergie,AC,22,1081 BR
93,1525311B-5B39-428E-9E67-A8DFAB316A46,Amsterdam,Abberdaan 172,TotalEnergie,52.392266,4.786851,TotalEnergie,AC,22,1046 AB
94,156B90C1-E0F0-405B-A292-1DC65AC47AAE,Amsterdam,Buitenveldertselaan 27,TotalEnergie,52.332554,4.869263,TotalEnergie,AC,22,1082 VA
95,15b5e21b-383a-4c6f-b7d8-b93b98b0dee3,Amsterdam,Kromme Mijdrechtstraat 99,TotalEnergie,52.344833,4.912237,TotalEnergie,AC,22,1079 KT
96,16c490e9-581d-40db-bc34-2f469051c5fb,Weesp,Singel 1,TotalEnergie,52.307929,5.037337,TotalEnergie,AC,22,1381 AR
97,16EE435A-0BE6-4EC8-90FE-ECF6F6723124,Amsterdam,Louise de Colignystraat 55,TotalEnergie,52.380278,4.857021,TotalEnergie,AC,22,1055 XH
98,17552b2d-4447-4c62-9866-e796f173a7ea,Weesp,Abcoudepad 2,TotalEnergie,52.31805,5.03949,TotalEnergie,AC,22,1384AL
99,176D862B-35D3-49AD-9732-A91D6276A17D,Amsterdam,Minervalaan 44,TotalEnergie,52.348213,4.872085,TotalEnergie,AC,22,1077 PB
100,17D88EA4-8D0A-4818-8B73-B4386FFAEE61,Amsterdam,Wormerveerstraat 2,TotalEnergie,52.388615,4.877234,TotalEnergie,AC,22,1013 SK
101,180C97A1-23A3-4A9E-AEB6-321D1AA8AB47,Amsterdam,Hertingenstraat 84,TotalEnergie,52.355416,4.796418,TotalEnergie,AC,22,1069 HD
102,1828AC10-0E6C-4C2E-9E0C-0828E5FE2776,Amsterdam,Reitdiepstraat 12 II,TotalEnergie,52.343246,4.910412,TotalEnergie,AC,22,1079 MA
103,1890FD42-AAF0-40C9-99ED-5337C98BC660,Amsterdam,Sneeuwbalstraat 15,TotalEnergie,52.397339,4.915042,TotalEnergie,AC,22,1032 GX
104,18a992d7-02f5-4c79-9cd9-846ffb349433,Weesp,Fort Abcoudestraat 30,TotalEnergie,52.31742,5.03928,TotalEnergie,AC,22,1382
105,18CC1509-D2A2-403E-82AB-D98F3FA21B48,Amsterdam,Buiksloterweg 95,TotalEnergie,52.387898,4.914713,TotalEnergie,AC,22,1031 CJ
106,194fcc99-0b20-469e-bb52-0e4b2b9e7aa6,Amsterdam,Javakade 696,TotalEnergie,52.378872,4.92427,TotalEnergie,AC,22,1019 SG
107,19621b51-35a0-442d-94e9-f589be876222,Amsterdam,Jacob van Lennepkade 55,TotalEnergie,52.365658,4.874449,TotalEnergie,AC,22,1054 ZG
108,197b4465-e1b2-4181-a876-bba4d07fe8c6,Amsterdam,Kouwenoordweg 27,TotalEnergie,52.316263,4.987465,TotalEnergie,AC,22,1104 HL
109,19E4F4AF-181C-46EE-BD21-5BBF22B76FD5,Amsterdam,Paramaribostraat 1,TotalEnergie,52.358951,4.855134,TotalEnergie,AC,22,1058 AN
110,1ae9531c-7192-4af2-9712-ed38077f9560,Amsterdam,Vrolikstraat 423,TotalEnergie,52.357526,4.922686,TotalEnergie,AC,22,1092 TG
111,1b056e0c-4ad0-4bf8-8f4c-c0463a57fa8b,Amsterdam,Transvaalstraat 18,TotalEnergie,52.355589,4.927065,TotalEnergie,AC,22,1092 HK
112,1B7B9D75-0B5F-4D9A-938A-48847BC2C50E,Amsterdam,KNSM-Laan 708,TotalEnergie,52.377095,4.946,TotalEnergie,AC,22,1019 LS
113,1B7D3C7B-99F4-4B11-A2BE-5960A4F630FB,Amsterdam,Westerstraat 187,TotalEnergie,52.378003,4.881731,TotalEnergie,AC,22,1015 MA
114,1BC5E9CA-2245-4584-8BFB-0750F5DE8C6F,Amsterdam,Saffierstraat 31,TotalEnergie,52.35148,4.906333,TotalEnergie,AC,22,1074 GJ
115,1be61c26-5dae-4e80-ae91-35697c607210,Amsterdam,Karel Klinkenbergstraat 40,TotalEnergie,52.36763,4.836293,TotalEnergie,AC,22,1061 AN
116,1c1eaefa-b101-483c-9882-da9e0dc2a9a3,Amsterdam,Knollendamstraat 2,TotalEnergie,52.39066,4.878032,TotalEnergie,AC,22,1013 TN
117,1C787024-33EB-468F-BB62-752C65C2D72A,Amsterdam,Zuiderzeepark 64,TotalEnergie,52.388361,4.958777,TotalEnergie,AC,22,1024 MH
118,1E1DBFDE-CC96-4221-8A1F-0036AF4EF5FE,Weesp,Hoogstraat 70,TotalEnergie,52.30581,5.04628,TotalEnergie,AC,22,1381 VV
119,1E41998F-E8DA-45E1-AB93-91CDDE15B7F4,Amsterdam,Amstelveenseweg 742,TotalEnergie,52.332673,4.857033,TotalEnergie,AC,22,1081 JK
120,1F3BDAED-B3C7-42DD-9CDF-551CD1D604ED,Amsterdam,Lanseloetstraat 4,TotalEnergie,52.376661,4.849971,TotalEnergie,AC,22,1055 BD
121,1f5563fa-7e6b-4fa6-9230-aeb5dc263ef3,Amsterdam,D.L. Hudigstraat 5,TotalEnergie,52.373017,4.940994,TotalEnergie,AC,22,1019 TR
122,1F990897-DF4D-49D0-B857-35901089678B,Amsterdam,Klaas Katerstraat 115,TotalEnergie,52.349739,4.796518,TotalEnergie,AC,22,1069 RN
123,1FB1ED8A-A5D1-4826-A744-03CEC48E8165,Amsterdam,James Wattstraat 100,TotalEnergie,52.348661,4.92,TotalEnergie,AC,22,1097 DM
124,216ab62c-bfed-401c-b779-f07726b77a3c,Amsterdam,Hoekenes 30,TotalEnergie,52.35765,4.800233,TotalEnergie,AC,22,1068 MV
125,21880ad7-91e4-4c83-8f10-a59b00874680,Amsterdam,Kribbestraat 3,TotalEnergie,52.342312,4.90405,TotalEnergie,AC,22,1079 WK
126,218ABF70-42C0-4500-857D-A404EB7F2997,Amsterdam,Rooseveltlaan 30,TotalEnergie,52.345172,4.901853,TotalEnergie,AC,22,1078 NJ
127,218F12EC-F224-4572-8F20-06CDEBF3F567,Amsterdam,Barbusselaan 407,TotalEnergie,52.318672,4.946112,TotalEnergie,AC,22,1102 TW
128,220A6115-9666-41CD-A329-7302EB505628,Amsterdam,Graanstraat 49,TotalEnergie,52.339483,4.940983,TotalEnergie,AC,22,1097 TB
129,2211476F-F8ED-4557-B8A2-59557541FF5C,Amsterdam,Hoogheemraadweg 2,TotalEnergie,52.358822,4.781414,TotalEnergie,AC,22,1069 VM
130,22d8b9a0-0760-40d2-b083-c03ea9e6a8ee,Amsterdam,Johan Jongkindstraat 97,TotalEnergie,52.359356,4.837333,TotalEnergie,AC,22,1062 CR
131,2300ba03-4255-4073-b4bc-6a61166ac79a,Amsterdam,Ter Haarstraat 12,TotalEnergie,52.370253,4.870055,TotalEnergie,AC,22,1053 LJ
132,24818FB7-AD4F-4B5E-9004-DD6E5747650C,Amsterdam,Prinsengracht 1091,TotalEnergie,52.362462,4.900201,TotalEnergie,AC,22,1017 JH
133,251BE008-ED76-4D82-AF31-28132EE662B7,Amsterdam,Willem Kloosstraat 3,TotalEnergie,52.375707,4.822005,TotalEnergie,AC,22,1064 ST
134,2542e366-9597-42db-9e57-b347c1980366,Amsterdam,Fritz Dietrich Kahlenbergstraat 52,TotalEnergie,52.348222,5.00854,TotalEnergie,AC,22,1087 LL
135,255e5040-7135-480d-8bd5-06e4cafaf57c,Weesp,Waardijnstraat 25,TotalEnergie,52.30002,5.038,TotalEnergie,AC,22,1383 CH
136,25A71C2B-22E8-466D-8D48-0D00DFA90AD1,Amsterdam,Churchill-laan 284,TotalEnergie,52.347542,4.887798,TotalEnergie,AC,22,1078 GB
137,25bfe35e-d515-4207-8671-c15ed3965c0b,Amsterdam,2e Kekerstraat 25,TotalEnergie,52.313905,4.979929,TotalEnergie,AC,22,1104 VA
138,25fab883-e294-4ab8-b25e-b1858b9f8c8f,Amsterdam,Derde Helmersstraat 12,TotalEnergie,52.365456,4.877696,TotalEnergie,AC,22,1054 BG
139,26157413-d550-49c6-840b-b3f713863e7e,Amsterdam,Valeriusstraat 249,TotalEnergie,52.351195,4.857655,TotalEnergie,AC,22,1075 GB
140,2685BB67-6E63-4980-BD83-6214ADE8CFBF,Amsterdam,Plantage Muidergracht 137,TotalEnergie,52.363658,4.916746,TotalEnergie,AC,22,1018 TS
141,26BCDEAE-C572-430D-B67D-4B1FF6F4AE8B,Amsterdam,Van Middellandtstraat 2,TotalEnergie,52.365375,4.851021,TotalEnergie,AC,22,1057 AP
142,26FCA05A-687A-4197-8644-4DA8F228DBAB,Amsterdam,Nieuwe Keizersgracht 58,TotalEnergie,52.364888,4.904728,TotalEnergie,AC,22,1018 DT
143,27622C42-F409-4CBC-BF79-6C4C679245D0,Amsterdam,Heining 3,TotalEnergie,52.39543,4.767111,TotalEnergie,AC,22,1047 AZ
144,27655FF2-C0FB-418D-B703-84BCE143E434,Amsterdam,Ranonkelkade 1,TotalEnergie,52.386913,4.907489,TotalEnergie,AC,22,1031 XR
145,2776e9f7-2ef6-4f76-ac6c-b264e298eb03,Amsterdam,President Allendelaan 101,TotalEnergie,52.366515,4.806174,TotalEnergie,AC,22,1068 VM
146,279a01bb-ea06-481c-9792-3ed4818e7d5d,Amsterdam,Geuzenstraat 59,TotalEnergie,52.372544,4.864584,TotalEnergie,AC,22,1056 KB
147,2845617a-430f-480a-8ce3-61ec8b4c45f1,Amsterdam,Gibraltarstraat 22,TotalEnergie,52.383621,4.852814,TotalEnergie,AC,22,1055 NN
148,28c54102-e021-45dc-b51b-e1012a1dbd33,Amsterdam,Johannes Verhulststraat 107,TotalEnergie,52.354249,4.871512,TotalEnergie,AC,22,1071 MX
149,294D681C-3116-4078-BE9C-D616FE6B1F7C,Amsterdam,Dijkmanshuizenstraat 244,TotalEnergie,52.396895,4.957477,TotalEnergie,AC,22,1024 XR
150,2A7D59FE-8633-4AB9-AD99-E47A18C96427,Amsterdam,Vrijheidslaan 46,TotalEnergie,52.346987,4.908426,TotalEnergie,AC,22,1078 PM
151,2A91A413-349D-4EBA-A772-3F636E6DEF0D,Amsterdam,Chasséstraat 60,TotalEnergie,52.369525,4.861733,TotalEnergie,AC,22,1057 JP
152,2ABF3CE7-CA67-4A06-99B0-B63E371CD30A,Amsterdam,Nico Jessekade 99,TotalEnergie,52.34809,5.004266,TotalEnergie,AC,22,1087 MG
153,2adbee55-2f07-42f5-b78c-a950ac8cacde,Amsterdam,Deurloostraat 29,TotalEnergie,52.346207,4.893055,TotalEnergie,AC,22,1078 HR
154,2b4c92fc-ed0a-4c08-8fa2-d394e798d194,Amsterdam,Smitstraat 19,TotalEnergie,52.354963,4.921823,TotalEnergie,AC,22,1092 XP
155,2b5e193c-c679-47ce-b719-e7e0579531e9,Amsterdam,Warmondstraat 175,TotalEnergie,52.352494,4.849565,TotalEnergie,AC,22,1058 KX
156,2bc5b7db-964a-4e90-b6da-d0fe5a8de984,Amsterdam,J.H. Hisgenpad 261,TotalEnergie,52.399759,4.927449,TotalEnergie,AC,22,1025 WK
157,2d792953-ce0d-482d-983e-d4dae9f5f24b,Amsterdam,Borgerstraat 212,TotalEnergie,52.364069,4.861961,TotalEnergie,AC,22,1053 RE
158,2D8026BE-38BD-4200-8531-5ECA6B9F24EE,Amsterdam,Wedderborg 70,TotalEnergie,52.333667,4.873372,TotalEnergie,AC,22,1082 TB
159,2E69B710-E3C3-4D36-AE1F-AAC78E63322E,Amsterdam,Cruquiusstraat 3,TotalEnergie,52.36907,4.92828,TotalEnergie,AC,22,1018 SL
160,2E98B232-1E94-48F8-AC69-5EFBFD6C3CE6,Amsterdam,Krombekstraat 214,TotalEnergie,52.312662,4.977547,TotalEnergie,AC,22,1104 KK
161,2fa1effd-dd21-430a-b662-fa76ccb9ddb7,Weesp,Korte Muiderweg 25,TotalEnergie,52.313423,5.048497,TotalEnergie,AC,22,1382 LM
162,3033076D-F88A-4FCB-985D-2329DB53C6C5,Amsterdam,Wilhelminastraat 213,TotalEnergie,52.360208,4.858137,TotalEnergie,AC,22,1054 WG
163,30ED8F11-97B7-418A-A8A5-7CE2DD26F816,Amsterdam,Nilda Pintostraat 8,TotalEnergie,52.321064,4.965944,TotalEnergie,AC,22,1103 ML
164,32939F2E-12B4-48D5-8B31-9BC1C098FABF,Amsterdam,Leimuidenstraat 5,TotalEnergie,52.350725,4.850534,TotalEnergie,AC,22,1059 ED
165,32eb66ee-2d13-46eb-859e-3920e1c858b4,Amsterdam,Fraunhoferstraat 22,TotalEnergie,52.351007,4.936953,TotalEnergie,AC,22,1098 LR
166,337DE53B-A58F-4D21-B98A-B0E04CCFF5ED,Amsterdam,s-Gravesandestraat 92,TotalEnergie,52.360872,4.915466,TotalEnergie,AC,22,1091 DE
167,340058b5-1241-47c0-839c-8b95689840ad,Amsterdam,Cliffordstraat 1,TotalEnergie,52.383979,4.871874,TotalEnergie,AC,22,1051 ET
168,3403459D-80FE-475A-87FC-109389148C13,Amsterdam,Frederik Hendrikstraat 154,TotalEnergie,52.373907,4.872107,TotalEnergie,AC,22,1052 JE
169,348c0068-df16-4676-be1a-41d2bf31454a,Amsterdam,Oostzaanstraat 125,TotalEnergie,52.391512,4.873194,TotalEnergie,AC,22,1013 WG
170,351d50a4-5c32-4ccf-9d3d-e6af437a561f,Amsterdam,Ponserstraat 1,TotalEnergie,52.403186,4.899564,TotalEnergie,AC,22,1033 DK
171,3533FA46-CA00-44AA-A543-C1C05114B683,Amsterdam,De Wittenstraat 29,TotalEnergie,52.383732,4.87958,TotalEnergie,AC,22,1052 AK
172,35F1D030-3053-4CE9-B4C7-B571880C1889,Amsterdam,Dirk Schäferstraat 27,TotalEnergie,52.341809,4.866856,TotalEnergie,AC,22,1076 BE
173,363CE7B7-F04F-4753-909F-6A475A3AFF09,Amsterdam,Davisstraat 171,TotalEnergie,52.365665,4.853515,TotalEnergie,AC,22,1057 TJ
174,3682956A-12E7-4309-ACA0-6E5E770B4DAD,Amsterdam,Bronckhorststraat 1,TotalEnergie,52.353078,4.881419,TotalEnergie,AC,22,1071 WL
175,36D245DC-5AD8-4D60-B1B1-4FF45D8FB839,Amsterdam,Leenhofstraat 11,TotalEnergie,52.377874,4.799569,TotalEnergie,AC,22,1067 KW
176,3783DCC2-95B9-468E-892E-BC49DC4E2AC3,Amsterdam,Elisabeth Boddaertstraat 28,TotalEnergie,52.349711,4.830144,TotalEnergie,AC,22,1066 BD
177,37A77080-D431-4186-B094-4CAE735A62A9,Amsterdam,Pieter A. van Heijningestraat 85,TotalEnergie,52.422698,4.899929,TotalEnergie,AC,22,1035 SX
178,37EBCAE8-2E18-4DD3-BAC6-DAF680FB1E2D,Amsterdam,Sophialaan 22,TotalEnergie,52.352615,4.858083,TotalEnergie,AC,22,1075 BS
179,37F15CC7-0FC1-47AA-B1E8-02F4CDEE343D,Amsterdam,Geerdinkhof 622,TotalEnergie,52.326551,4.97927,TotalEnergie,AC,22,1103 RM
180,38003b20-8bec-4c9d-a05a-ce7bcbdda086,Amsterdam,Eensgevonden 40,TotalEnergie,52.32654,4.966991,TotalEnergie,AC,22,1103 BA
181,388727EB-7975-4CB4-ABF8-50E9567B4C26,Amsterdam,Slikkerveerstraat 5,TotalEnergie,52.292175,4.973147,TotalEnergie,AC,22,1107 VJ
182,38971047-abf0-47ad-8935-4e60afbb4445,Amsterdam,H. Gerhardstraat 58,TotalEnergie,52.350887,4.802184,TotalEnergie,AC,22,1069 TD
183,38D7E6C2-40E2-40AD-9683-9C6ACA270DA9,Amsterdam,Sporadenlaan 42,TotalEnergie,52.345417,4.79302,TotalEnergie,AC,22,1060 MJ
184,394273be-69e0-4132-979f-c9969c182e57,Amsterdam,Gerrit van der Veenstraat 84,TotalEnergie,52.349065,4.876107,TotalEnergie,AC,22,1077 EL
185,39b9ee2c-3711-4ff5-a564-2b1a9fb66626,Amsterdam,Oogststraat 1,TotalEnergie,52.338803,4.94475,TotalEnergie,AC,22,1097 ZR
186,39fa4fcc-61d5-4ddb-a1e1-818890f79ddc,Amsterdam,Linnaeusparkweg 228,TotalEnergie,52.349703,4.941053,TotalEnergie,AC,22,1098 ER
187,39FD1CA8-423A-405D-B993-33EEDFF78658,Amsterdam,Eva Besnyöstraat 577,TotalEnergie,52.348982,5.009903,TotalEnergie,AC,22,1087 LM
188,3a0e537b-a286-41ec-b969-c349d9f82600,Amsterdam,Jacob Obrechtstraat 56,TotalEnergie,52.354464,4.876359,TotalEnergie,AC,22,1071 KN
189,3A4204AC-92F0-4D09-89F0-2EC08ECE06BB,Amsterdam,Pieter Calandlaan 353,TotalEnergie,52.354025,4.810315,TotalEnergie,AC,22,1068 ND
190,3AA5A470-57D4-4E89-B9D7-B2868E5EF76F,Amsterdam,Osdorper Ban 763,TotalEnergie,52.360546,4.794118,TotalEnergie,AC,22,1069 GA
191,3AD3AE87-BD0F-4586-9C12-739371BDDC20,Amsterdam,Louis Bouwmeesterstraat 50,TotalEnergie,52.354158,4.822581,TotalEnergie,AC,22,1065 KW
192,3b083354-0aa6-49f2-8f4b-81e945f5d0a8,Amsterdam,Sumatrastraat 21,TotalEnergie,52.364123,4.935429,TotalEnergie,AC,22,1094 LM
193,3B0B9A63-BE82-44E8-A70B-692B64969B61,Amsterdam,Monnikendammerweg 21,TotalEnergie,52.386944,4.949887,TotalEnergie,AC,22,1023 EA
194,3B5A20AD-963D-4117-A411-824D8BE176B5,Amsterdam,Olympiaplein 71,TotalEnergie,52.347274,4.868039,TotalEnergie,AC,22,1077 CP
195,3B7909C7-0419-4E25-B306-07400966FEEA,Amsterdam,Gerard Schaepstraat 12,TotalEnergie,52.379961,4.875365,TotalEnergie,AC,22,1052 GL
196,3C80F06A-9287-4C03-BEDA-A988F2E909B5,Amsterdam,Staringstraat 46,TotalEnergie,52.360227,4.863417,TotalEnergie,AC,22,1054 VN
197,3C85799D-FE89-4963-BF4B-92D5F9146C0F,Amsterdam,Van Eeghenstraat 86,TotalEnergie,52.357023,4.871177,TotalEnergie,AC,22,1071 GK
198,3C9F5840-E798-4AE1-B146-23A77301ED9E,Amsterdam,Joan Melchior Kemperstraat 38,TotalEnergie,52.384969,4.874706,TotalEnergie,AC,22,1051 TS
199,3CAD49B7-FF29-421D-8598-03469556E0AB,Amsterdam,De Kempenaerstraat 44,TotalEnergie,52.379939,4.870007,TotalEnergie,AC,22,1051 CP
200,3CB246FA-BE87-44C1-88AC-079CE277C8A6,Amsterdam,Francisco Faleirostraat 10,TotalEnergie,52.362645,4.978932,TotalEnergie,AC,22,1086 XV
201,3cb83de7-1c48-46b7-883b-6735fb9bb2c9,Amsterdam,Van Effenstraat 7,TotalEnergie,52.365982,4.862833,TotalEnergie,AC,22,1053 BT
202,3CD14597-9775-435C-9B4B-A50E2DD30804,Amsterdam,Slaakstraat 12,TotalEnergie,52.347686,4.88821,TotalEnergie,AC,22,1078 BD
203,3D37696F-AC5D-4BE9-9B44-AFE72C7256D9,Amsterdam,Hoekenes 51,TotalEnergie,52.356104,4.801051,TotalEnergie,AC,22,1068 MP
204,3D536671-B00D-4D0B-933E-1950B4D61280,Amsterdam,Omval 168,TotalEnergie,52.34406,4.915363,TotalEnergie,AC,22,1096 HZ
205,3DD934C9-1459-4F2B-B7EB-84789CEC57AB,Amsterdam,Sikkelstraat 7A,TotalEnergie,52.340839,4.949185,TotalEnergie,AC,22,1097 ZC
206,3DF2022B-F890-4EFF-AA40-9BD427F78800,Amsterdam,Frederiksstraat 142,TotalEnergie,52.357678,4.859378,TotalEnergie,AC,22,1054 LC
207,3e43f233-18d5-4aad-acf3-291f21500914,Amsterdam,Lodewijk van Deysselstraat 107,TotalEnergie,52.377864,4.809972,TotalEnergie,AC,22,1064 HM
208,3EA11957-CE1C-4244-AECF-BB8F8AF05267,Amsterdam,Lutmastraat 271,TotalEnergie,52.352366,4.907786,TotalEnergie,AC,22,1074 TZ
209,3EBB7C9A-A36D-400C-A895-49CDAA385D51,Amsterdam,Zoomstraat 41,TotalEnergie,52.343237,4.892848,TotalEnergie,AC,22,1078 XH
210,3EF6CDC6-5287-4E62-895A-418FD1F8C1E4,Amsterdam,Speerstraat 23,TotalEnergie,52.348872,4.863475,TotalEnergie,AC,22,1076 XM
211,3F140752-23FC-48B4-A7F0-A97DC88268FC,Amsterdam,Van Spilbergenstraat 155,TotalEnergie,52.368538,4.849695,TotalEnergie,AC,22,1057 RE
212,3F7E9604-145F-46F4-AB58-2B4995C1B027,Amsterdam,Milletstraat 60,TotalEnergie,52.345993,4.868835,TotalEnergie,AC,22,1077 ZG
213,4029D247-EABD-46DA-B4E9-4F428EAE5034,Amsterdam,Lokerenstraat 20,TotalEnergie,52.346464,4.804477,TotalEnergie,AC,22,1066 SP
214,413091fa-a2eb-4810-b113-61155fcdd312,Amsterdam,Kempenlaan 22,TotalEnergie,52.345374,4.80733,TotalEnergie,AC,22,1066 PX
215,413A0C5B-2A9E-4776-8C6B-0CE72C27DD3E,Amsterdam,Louis Bouwmeesterstraat 214,TotalEnergie,52.352649,4.832126,TotalEnergie,AC,22,1065 LG
216,42F6AD69-10F4-466D-A925-4C72F1477F4C,Amsterdam,Hendrik Hosstraat 171,TotalEnergie,52.298745,4.997181,TotalEnergie,AC,22,1106 ZM
217,4303E909-0A6C-4A78-BCDE-F395460D445B,Amsterdam,Valeriusstraat 171,TotalEnergie,52.352407,4.862197,TotalEnergie,AC,22,1075 EV
218,430A6B11-8D8D-4810-B798-AC80E74BF74C,Amsterdam,Vechtstraat 49,TotalEnergie,52.347478,4.905902,TotalEnergie,AC,22,1078 RJ
219,438B0289-84FB-4C54-A700-E094B9278749,Amsterdam,Brigantijnkade 76,TotalEnergie,52.363847,4.986065,TotalEnergie,AC,22,1086 VB
220,4393CA69-BAB1-4415-A2D5-7454950A1629,Amsterdam,Dijkgraafplein 44,TotalEnergie,52.356156,4.785887,TotalEnergie,AC,22,1069 EN
221,44263f3f-d5cf-4b38-bc85-90cd0c6efa21,Amsterdam,Mijehof 114,TotalEnergie,52.30159,4.96696,TotalEnergie,AC,22,1106 HP
222,44b2881c-28d7-443d-b426-828150839108,Amsterdam,Galileïplantsoen 20,TotalEnergie,52.352687,4.93834,TotalEnergie,AC,22,1098 NA
223,451770AD-D770-42EF-8077-6976AF59B170,Amsterdam,Fijnje van Salverdastraat 10,TotalEnergie,52.356504,4.828311,TotalEnergie,AC,22,1065 EA
224,45503A91-BF8B-4F6C-B42A-AB4B92ED9824,Amsterdam,Johannes Verhulststraat 34,TotalEnergie,52.355403,4.875366,TotalEnergie,AC,22,1071 NE
225,46092845-180D-4C71-9265-57FC51C7B4B6,Amsterdam,J.G. Suurhoffstraat 14,TotalEnergie,52.378854,4.789763,TotalEnergie,AC,22,1067 VS
226,466dc2e3-a65e-4b41-9d23-55b85317c2ab,Amsterdam,Kromme Mijdrechtstraat 21,TotalEnergie,52.346101,4.908598,TotalEnergie,AC,22,1079 KN
227,47361ef5-625a-4aa4-9ad9-e6e30fe9c1db,Amsterdam,Kermispad 95,TotalEnergie,52.417006,4.884455,TotalEnergie,AC,22,1033 ZA
228,481bd238-e2a2-446b-aa5d-82b015c84ef1,Amsterdam,Boris Pasternakstraat 107,TotalEnergie,52.319823,4.941693,TotalEnergie,AC,22,1102 TB
229,48943BCD-D580-43E8-90F6-DC7D1B45A4DA,Amsterdam,James Cookstraat 41,TotalEnergie,52.372599,4.851844,TotalEnergie,AC,22,1056 RX
230,48C8CCE4-C634-47F9-B21D-974FD0CD5154,Amsterdam,Plantage Parklaan 21,TotalEnergie,52.368219,4.910331,TotalEnergie,AC,22,1018 SV
231,48E12F70-404E-424D-88C2-2D49607D715C,Amsterdam,Volendammerweg 49,TotalEnergie,52.390785,4.951554,TotalEnergie,AC,22,1023 BE
232,49730507-2A36-4B6D-BA4E-D8DD3E57D7A2,Amsterdam,Sumatrakade 1437,TotalEnergie,52.379686,4.923668,TotalEnergie,AC,22,1019 RR
233,4A1C8E33-BA2A-47F0-A27B-5A0471C75E96,Amsterdam,Kwelderweg 10,TotalEnergie,52.35582,4.78425,TotalEnergie,AC,22,1069 VP
234,4a60d59f-d84a-4d9f-97a9-eb39f3e90ed6,Amsterdam,H. Stolleplantsoen 25,TotalEnergie,52.407597,4.935157,TotalEnergie,AC,22,1022 KJ
235,4A6B2FB6-FF31-42BD-AE64-717116E24A7D,Amsterdam,Voornestraat 23,TotalEnergie,52.392858,4.929566,TotalEnergie,AC,22,1025 NK
236,4acfadc1-0f2a-4d9a-94b9-267f30422fbe,Amsterdam,Van Tuyll van Serooskerkenweg 16,TotalEnergie,52.344859,4.863204,TotalEnergie,AC,22,1076 JL
237,4B5030A9-C613-4A20-9869-B3E24A46543A,Amsterdam,Lodewijk van Deysselstraat 55,TotalEnergie,52.377378,4.814893,TotalEnergie,AC,22,1064 HL
238,4BD017C1-1D28-4065-84AF-7EE779F1C68E,Amsterdam,Johan M. Coenenstraat 17,TotalEnergie,52.352118,4.880978,TotalEnergie,AC,22,1071 WC
239,4C0E38DE-DF8E-4203-B21A-AA25D3AFCEDA,Amsterdam,Rooseveltlaan 228,TotalEnergie,52.342736,4.895124,TotalEnergie,AC,22,1078 NX
240,4CC67803-DDEB-422F-A17F-9F0DC34F09D3,Amsterdam,Domselaerstraat 126,TotalEnergie,52.360211,4.928666,TotalEnergie,AC,22,1093 MB
241,4d16cbdd-2000-45b7-aa8d-47926edae276,Weesp,Heemraadweg 101,TotalEnergie,52.315137,5.029203,TotalEnergie,AC,22,1382 GV
242,4d41350a-0f8c-4496-9056-517218b736fc,Amsterdam,Willem Heselaarsstraat 22,TotalEnergie,52.352225,4.798196,TotalEnergie,AC,22,1069 KA
243,4D5915FA-D833-4C19-B267-B0A2E3BE4976,Amsterdam,Newtonstraat 54,TotalEnergie,52.356245,4.936477,TotalEnergie,AC,22,1098 HE
244,4d5b7c54-8db7-4cbe-9490-a6f5bbe25d23,Amsterdam,Tweede Helmersstraat 99,TotalEnergie,52.363935,4.874865,TotalEnergie,AC,22,1054 CE
245,4d7ba650-9759-4cce-8b60-27c48a79012d,Weesp,Aquamarin 18,TotalEnergie,52.308769,5.02677,TotalEnergie,AC,22,1382KK
246,4E0DA007-CE33-4826-8910-B5148756E863,Amsterdam,Wethouder Serrurierstraat 90,TotalEnergie,52.292124,4.990261,TotalEnergie,AC,22,1107 CJ
247,4E1F8215-DE8B-486E-80F4-33B6DDDB056C,Amsterdam,Willem Beukelsstraat 35,TotalEnergie,52.353051,4.927027,TotalEnergie,AC,22,1097 CR
248,4E4E11FF-95EF-4275-AA84-DD68C81B871A,Amsterdam,Henri Dunantstraat 127,TotalEnergie,52.348296,4.829232,TotalEnergie,AC,22,1066 AW
249,4E86EB24-41DE-42C5-80B6-C63ED3335893,Amsterdam,Westerdok 49,TotalEnergie,52.385362,4.891678,TotalEnergie,AC,22,1013 AZ
250,4ed638d1-d188-436f-8c56-f841b3dd83c3,Amsterdam,Dijkgraafplein 363,TotalEnergie,52.355671,4.785462,TotalEnergie,AC,22,1069 EV
251,4F8661E0-53DB-4485-8613-77F7DC26FDCF,Amsterdam,Curacaostraat 33,TotalEnergie,52.359965,4.852066,TotalEnergie,AC,22,1058 BW
252,501A30AC-7A3F-4644-9923-F44DF07DD162,Amsterdam,De Boelelaan 849,TotalEnergie,52.33492,4.872706,TotalEnergie,AC,22,1082 RV
253,505b12f8-251a-404d-ae17-b66dd5a9532c,Amsterdam,Jasonstraat 28,TotalEnergie,52.343684,4.860268,TotalEnergie,AC,22,1076 LB
254,5094246E-378D-40AB-A063-4C12A2916E2D,Amsterdam,Leeuwarderweg 26,TotalEnergie,52.391548,4.924689,TotalEnergie,AC,22,1025 RW
255,5164106B-1856-48B6-B07D-48BCEAB6C9AE,Amsterdam,Gijsbrecht van Aemstelstraat 2,TotalEnergie,52.352916,4.910746,TotalEnergie,AC,22,1091 TC
256,5191BDA1-5A85-44AC-BF3D-EDB2881FF3F9,Amsterdam,Pegasusstraat 2,TotalEnergie,52.411509,4.885281,TotalEnergie,AC,22,1033 JJ
257,51980546-4493-4388-9841-071f82a6964b,Amsterdam,Justus Halbertsmastraat 10,TotalEnergie,52.36184,4.8295,TotalEnergie,AC,22,1065 VG
258,51B2D012-1114-49C2-8843-D3B28249E5FE,Amsterdam,Krommehoekstraat 12,TotalEnergie,52.315641,4.972942,TotalEnergie,AC,22,1104 KV
259,51ED2B6C-BF4A-457D-BE1E-DE7EFA2A6B01,Amsterdam,Berthold Brechtstraat 693,TotalEnergie,52.317932,4.944498,TotalEnergie,AC,22,1102 RS
260,521381b9-9d83-4f69-a02c-b007534f2ccf,Weesp,Meester C. Kooimancentrum 17a,TotalEnergie,52.29874,5.04282,TotalEnergie,AC,22,1383 ED
261,53008FA2-A49F-4C64-AD45-9A52F023A275,Amsterdam,Admiralengracht 84,TotalEnergie,52.367626,4.858007,TotalEnergie,AC,22,1057 GC
262,53023585-0A3F-45FD-9E3E-767F509C466C,Amsterdam,Johannes de Bekahof 1,TotalEnergie,52.360022,4.804853,TotalEnergie,AC,22,1065 AL
263,531b6da2-20c3-4912-bb2e-5734883b7b3e,Amsterdam,Woestduinstraat 144,TotalEnergie,52.349938,4.847569,TotalEnergie,AC,22,1059 SZ
264,5326626B-CE01-4C6A-BDFA-851F7693E150,Amsterdam,Ruysdaelkade 173,TotalEnergie,52.352736,4.886848,TotalEnergie,AC,22,1072 AT
265,533aad5a-3b12-4c36-b328-487ae0db5112,Amsterdam,Veeteeltstraat 104,TotalEnergie,52.340586,4.944646,TotalEnergie,AC,22,1097 XA
266,53425c4b-bc84-4b10-94c1-b92ff5c6f74b,Amsterdam,Stadionweg 71,TotalEnergie,52.346724,4.8744,TotalEnergie,AC,22,1077 SE
267,53EEC194-47F1-402F-B7CF-AE0F1C23ADBC,Amsterdam,Anthonie van Dijckstraat 13,TotalEnergie,52.348328,4.873864,TotalEnergie,AC,22,1077 MG
268,54635486-6894-4BA4-AFB4-F1EA395189AC,Weesp,Stationsplein 5,TotalEnergie,52.311,5.04476,TotalEnergie,AC,22,1382 AA
269,54665430-7779-4126-88CC-B2A6800427A6,Amsterdam,Pieter Calandlaan 2,TotalEnergie,52.356476,4.832715,TotalEnergie,AC,22,1065 KL
270,54902791-97CD-4DD6-A9AA-70424A09A8ED,Amsterdam,Baffinstraat 28,TotalEnergie,52.368409,4.853208,TotalEnergie,AC,22,1057 SX
271,54BE40B4-73D7-4060-80FE-524DC659D41F,Amsterdam,Hogeweg 9,TotalEnergie,52.3525,4.927936,TotalEnergie,AC,22,1098 BV
272,55c474a1-0fa0-449e-826b-8c44bc4bae9d,Weesp,Ossenmarkt 14,TotalEnergie,52.30689,5.04622,TotalEnergie,AC,22,1381 LX
273,56bcb8a8-0566-458f-85d9-d4876f716a84,Amsterdam,Ambonplein 3,TotalEnergie,52.360073,4.937238,TotalEnergie,AC,22,1094 PW
274,579436C0-AA5D-4B78-979B-53B33E83F953,Amsterdam,Adriaan Dorsmanstraat 67,TotalEnergie,52.382561,4.794921,TotalEnergie,AC,22,1067 XA
275,5801dbd8-e566-4cdb-871d-a21ea8b41fcc,Amsterdam,Frans van Mierisstraat 71,TotalEnergie,52.354159,4.88096,TotalEnergie,AC,22,1071 RM
276,5802B5BB-93E9-477B-8F50-46FAB2D97B64,Amsterdam,Silvoldestraat 56,TotalEnergie,52.290856,4.970115,TotalEnergie,AC,22,1107 TH
277,5882b068-e150-451a-8745-e9d648873855,Amsterdam,Toldwarsstraat 14,TotalEnergie,52.351941,4.901034,TotalEnergie,AC,22,1073 RR
278,58D40A76-B613-40BF-81A0-CE87630F9137,Amsterdam,Van Reigersbergenstraat 3,TotalEnergie,52.374777,4.871312,TotalEnergie,AC,22,1052 SL
279,59f1b02b-c30f-400b-952f-7d346b8a4158,Amsterdam,Pieter Postsingel 38,TotalEnergie,52.38362,4.798892,TotalEnergie,AC,22,1067 AN
280,5a19bf13-5f06-4022-a6b9-14659f7db7b2,Amsterdam,Merwedeplein 11,TotalEnergie,52.345627,4.901544,TotalEnergie,AC,22,1078 NA
281,5a6f3d13-28a4-456d-98dd-86d1c9a8b4e9,Amsterdam,Waaigat 36,TotalEnergie,52.370146,4.921328,TotalEnergie,AC,22,1018 AR
282,5A80ED4A-3B44-4DE7-A525-E869F7696BAE,Amsterdam,Butskopweg 15,TotalEnergie,52.423194,4.888057,TotalEnergie,AC,22,1035 HV
283,5A9F7D2B-8202-4D6C-B342-ECDE26C92C68,Amsterdam,Trompenburgstraat 51,TotalEnergie,52.343951,4.910749,TotalEnergie,AC,22,1079 TN
284,5AE44E08-158C-4185-BB1B-CCE46B019684,Amsterdam,Eerste Weteringplantsoen 40,TotalEnergie,52.359265,4.889632,TotalEnergie,AC,22,1017 SK
285,5AF957C4-897F-436A-B1BF-B904764EB0FF,Amsterdam,Lindengracht 191,TotalEnergie,52.379841,4.88279,TotalEnergie,AC,22,1015 KE
286,5B207F3E-2DCA-491A-B2EF-6A15A8491D60,Amsterdam,Jacob van Arteveldestraat 5,TotalEnergie,52.376085,4.841186,TotalEnergie,AC,22,1061 CE
287,5B447076-13E0-47F6-840A-A1142C3D2988,Amsterdam,Admiralengracht 85,TotalEnergie,52.367612,4.857188,TotalEnergie,AC,22,1057 GD
288,5ba398a2-8066-4076-a564-657303aa76d6,Amsterdam,Van Oldenbarneveldtplein 1,TotalEnergie,52.377249,4.876608,TotalEnergie,AC,22,1052 JK
289,5BA7D145-12AF-4425-8626-EFE44A1A4759,Amsterdam,Ottho Heldringstraat 37,TotalEnergie,52.348133,4.832378,TotalEnergie,AC,22,1066 XT
290,5C5E8F79-B61A-4845-BD6B-2928526AC893,Amsterdam,Backershagen 1,TotalEnergie,52.327454,4.87559,TotalEnergie,AC,22,1082 GR
291,5c788de4-e009-4fda-afd3-5e3809ccb47c,Weesp,Frederica Zeijdelaarweg 1,TotalEnergie,52.313711,5.044326,TotalEnergie,AC,22,1382 MB
292,5CAF0275-D5A8-4085-B2BE-B6A97B488B81,Amsterdam,Pieter Aertszstraat 2,TotalEnergie,52.352755,4.903119,TotalEnergie,AC,22,1074 VP
293,5CFF6B61-00CA-4529-A551-455426FDC521,Amsterdam,Derde Oosterparkstraat 48,TotalEnergie,52.356067,4.915625,TotalEnergie,AC,22,1091 JZ
294,5D4531C5-388D-48B2-B887-E3FB9197F368,Amsterdam,Baarsstraat 12,TotalEnergie,52.350374,4.854351,TotalEnergie,AC,22,1075 RW
295,5D869648-C53D-43C4-BED9-929B72971F7E,Amsterdam,Woubruggestraat 41,TotalEnergie,52.347743,4.849703,TotalEnergie,AC,22,1059 VP
296,5e4c7174-24eb-4ea3-86e0-9e329009fcdf,Amsterdam,Evertsweertstraat 2,TotalEnergie,52.357203,4.79693,TotalEnergie,AC,22,1069 EB
297,5E9F9F0E-8D3E-43CB-B799-A48E247112CD,Amsterdam,Borgerstraat 103,TotalEnergie,52.365004,4.866199,TotalEnergie,AC,22,1053 PE
298,5EF7D8B8-8F8D-4C97-B5E7-29AE547196B5,Amsterdam,Prinsengracht 193,TotalEnergie,52.377617,4.886006,TotalEnergie,AC,22,1015 DS
299,5F46B17F-FA97-4A29-B90E-E719FB8B6A36,Amsterdam,Kanaalstraat 102,TotalEnergie,52.362073,4.862737,TotalEnergie,AC,22,1054 XL
300,5F800AF1-E054-44F1-B7E7-5BDB1FFC5455,Amsterdam,Johannes Verhulststraat 156,TotalEnergie,52.35372,4.86908,TotalEnergie,AC,22,1071 NP
301,5FB45397-418F-421C-A5CF-7373EB36270D,Amsterdam,Alberdingk Thijmstraat 9,TotalEnergie,52.365014,4.875469,TotalEnergie,AC,22,1054 AH
302,5fd15d98-515c-4e2d-8652-c14d9a08ec2d,Amsterdam,Bachstraat 2,TotalEnergie,52.349693,4.87995,TotalEnergie,AC,22,1077 GG
303,5FDD0CC0-DFA4-4C4D-BAB2-CDB49D6F763B,Amsterdam,Tweede Oosterparkstraat 209,TotalEnergie,52.358465,4.921751,TotalEnergie,AC,22,1092 BK
304,60142CB0-0523-4381-A133-702FC18D2AF5,Amsterdam,Meentstraat 1,TotalEnergie,52.35534,4.788334,TotalEnergie,AC,22,1069 EX
305,60821F46-0FB2-4360-9749-0096AC9F41B2,Amsterdam,Diemerparklaan 11,TotalEnergie,52.354216,4.993898,TotalEnergie,AC,22,1087 EM
306,6101fa66-9cd1-40e4-952b-38cbb412fc28,Amsterdam,Fahrenheitsingel 70,TotalEnergie,52.344233,4.924504,TotalEnergie,AC,22,1097 NV
307,6133d0de-f058-4117-8586-7ea763ada09c,Amsterdam,Cornelis Roobolstraat 8,TotalEnergie,52.382764,4.804622,TotalEnergie,AC,22,1067 AJ
308,615C437F-0312-431C-B2C9-892A8444CDDF,Amsterdam,Van Houweningenstraat 8,TotalEnergie,52.37468,4.871886,TotalEnergie,AC,22,1052 TJ
309,61B07B5D-DA95-451C-B22A-479DFA52AC61,Amsterdam,Haarlemmerweg 313,TotalEnergie,52.385062,4.866894,TotalEnergie,AC,22,1051 LG
310,61c03688-84bb-4784-b747-e9e1d9b294cf,Amsterdam,Lutmastraat 101,TotalEnergie,52.351237,4.898964,TotalEnergie,AC,22,1073 GS
311,6328959B-FC91-4AD5-A109-115D6502CCCC,Amsterdam,Roelantstraat 41,TotalEnergie,52.376875,4.856835,TotalEnergie,AC,22,1056 ES
312,636e51ea-6aa8-4e1e-b798-1faefe53b3a8,Amsterdam,Biesboschstraat 54,TotalEnergie,52.345142,4.896886,TotalEnergie,AC,22,1078 MX
313,640e69a0-ca76-417a-af12-df2a00b8ae9b,Amsterdam,Pretoriusstraat 39,TotalEnergie,52.355741,4.925193,TotalEnergie,AC,22,1092 EZ
314,64150D19-AFC9-46F9-A6F0-681A099CAFC0,Amsterdam,Nageljongenstraat 199,TotalEnergie,52.405595,4.898237,TotalEnergie,AC,22,1033 PV
315,64208e1b-ec54-47e0-859c-1c3fe655a044,Amsterdam,Geertruida van Lierstraat 40,TotalEnergie,52.352195,4.782943,TotalEnergie,AC,22,1069 PE
316,644b8b69-95ed-4f65-84fd-14cc13314e1a,Amsterdam,Bennebroekstraat 32,TotalEnergie,52.352895,4.847241,TotalEnergie,AC,22,1058 LM
317,6459ee29-b9f0-4386-8ba0-f99064dce6c5,Amsterdam,Jan Mankesstraat 16,TotalEnergie,52.364794,4.83771,TotalEnergie,AC,22,1061 SW
318,6480BE9B-ED43-4885-A5E2-022E8994F627,Amsterdam,Crackstate 37,TotalEnergie,52.333899,4.878492,TotalEnergie,AC,22,1082 TW
319,64EB0381-F533-444B-AEC7-D3C0515E1981,Amsterdam,Lodewijk Tripstraat 4,TotalEnergie,52.379944,4.876846,TotalEnergie,AC,22,1052 ES
320,64ECD0D9-026B-4729-B893-74809451070E,Amsterdam,Douwes Dekkerstraat 2,TotalEnergie,52.369318,4.865568,TotalEnergie,AC,22,1053 SX
321,64F1821C-5554-40F6-8408-95548E349B05,Amsterdam,Bellamyplein 2,TotalEnergie,52.368332,4.867955,TotalEnergie,AC,22,1053 AS
322,650A9C8A-A509-4726-85FD-957EF07ED5F3,Amsterdam,Sophialaan 49,TotalEnergie,52.35237,4.857045,TotalEnergie,AC,22,1075 BN
323,6511138d-fdee-4a25-8454-dcaadbf64ad6,Amsterdam,Eerste Keucheniusstraat 167,TotalEnergie,52.399782,4.871826,TotalEnergie,AC,22,1051 HP
324,6567673c-78ce-4da4-95de-9ba86e78f2c6,Amsterdam,Alma Tademastraat 62,TotalEnergie,52.367461,4.841346,TotalEnergie,AC,22,1061 VK
325,658d52e5-8ca0-4e29-848c-44aa34be1246,Amsterdam,Olmenweg 2,TotalEnergie,52.354719,4.914759,TotalEnergie,AC,22,1091 KP
326,6645d378-9e94-4382-8f2e-9cb5c8b07392,Amsterdam,George Westinghousestraat 2,TotalEnergie,52.350632,4.920915,TotalEnergie,AC,22,1097 BA
327,66c60e19-4254-4bce-821c-dc31cc4ff2ad,Amsterdam,Willem Beukelsstraat 24,TotalEnergie,52.352817,4.926798,TotalEnergie,AC,22,1097 CS
328,67253111-9203-4246-b913-6c03ddf9413b,Weesp,Talmastraat 40,TotalEnergie,52.3063,5.03632,TotalEnergie,AC,22,1381 NE
329,674AD09E-8FE0-460C-A6BA-BECA78EE6965,Amsterdam,Titiaanstraat 23,TotalEnergie,52.349629,4.868818,TotalEnergie,AC,22,1077 RE
330,679f5d03-30b7-43e6-961b-8797816a46b4,Amsterdam,Groenendaalstraat 4,TotalEnergie,52.354192,4.848565,TotalEnergie,AC,22,1058 LG
331,68fce813-1bbf-4674-8b7d-ab74205fe201,Amsterdam,Weteringschans 275,TotalEnergie,52.35957,4.898273,TotalEnergie,AC,22,1017 XJ
332,690BCA05-7570-44D6-88EA-5FC403E8E90B,Amsterdam,Ribesstraat 2,TotalEnergie,52.393109,4.917013,TotalEnergie,AC,22,1032 JT
333,6932120e-1c82-413a-b175-afb237d12ba8,Amsterdam,Tuigerstraat 1,TotalEnergie,52.405957,4.899042,TotalEnergie,AC,22,1033 PH
334,696508ab-83b8-4e86-b870-294e866d4d49,Amsterdam,Zuivelplein 9,TotalEnergie,52.339759,4.946369,TotalEnergie,AC,22,1097 XD
335,696c9f58-8fa1-4774-8d8d-3aefa4e025db,Amsterdam,Staalmeesterslaan 85,TotalEnergie,52.364606,4.84352,TotalEnergie,AC,22,1057 NL
336,6A678BAB-C648-4778-98A1-537CB76C4F31,Amsterdam,Geulstraat 4,TotalEnergie,52.34517,4.894679,TotalEnergie,AC,22,1078 KZ
337,6b653f42-720f-4f46-a9d4-1a91592642b9,Amsterdam,Theodorus Dobbestraat 70,TotalEnergie,52.379342,4.832408,TotalEnergie,AC,22,1063 BX
338,6BFAA093-FD79-4B2F-86B8-C11AF79DF131,Amsterdam,Tweede Jan van der Heijdenstraat 72,TotalEnergie,52.356228,4.903278,TotalEnergie,AC,22,1074 XX
339,6C02084A-D134-4E73-961E-F8FCB4276336,Amsterdam,Olympiaweg 48,TotalEnergie,52.348258,4.86202,TotalEnergie,AC,22,1076 XA
340,6c49583f-b86d-472a-83ca-4046ae1dc4d2,Amsterdam,Groen van Prinstererstraat 15,TotalEnergie,52.384168,4.871874,TotalEnergie,AC,22,1051 ED
341,6C49E4AF-5921-4FBD-AB09-535B2D1E4B5E,Amsterdam,Suze Robertsonstraat 115,TotalEnergie,52.361993,4.839116,TotalEnergie,AC,22,1062 BV
342,6c66d354-1fa5-4727-890b-90a5601b7ed7,Amsterdam,Shackletonstraat 46,TotalEnergie,52.37254,4.850566,TotalEnergie,AC,22,1056 RN
343,6D67E814-FE99-410F-ACC2-0658D90FE3EF,Amsterdam,Koninginneweg 4,TotalEnergie,52.355855,4.867516,TotalEnergie,AC,22,1075 CX
344,6DBABFD4-D4B7-443E-96F7-A0610D9AE2AB,Amsterdam,Ben Viljoenstraat 2,TotalEnergie,52.352875,4.915328,TotalEnergie,AC,22,1091 XT
345,6DBE4945-8809-4913-84EE-BE02CBBC5EA8,Amsterdam,Couhornerhoek 31,TotalEnergie,52.422838,4.897444,TotalEnergie,AC,22,1035 KP
346,6e9027bb-269f-48ef-88f8-c8ac850effc9,Weesp,Julianastraat 37,TotalEnergie,52.31028,5.0388,TotalEnergie,AC,22,1382 XW
347,6e966816-af57-48a3-8464-99da53c8b1ae,Amsterdam,Valutaboulevard 4,TotalEnergie,52.348424,4.78737,TotalEnergie,AC,22,1060 RX
348,6f8cf5b7-1f76-4e7d-a26b-a200fc7c8f0e,Amsterdam,Coppelstockstraat 45,TotalEnergie,52.376276,4.860027,TotalEnergie,AC,22,1056 XL
349,6FA85525-80D2-4C0F-A77F-288181ACE204,Amsterdam,Hoogte Kadijk 86,TotalEnergie,52.369434,4.915178,TotalEnergie,AC,22,1018 BR
350,7074dcbb-4eb8-4849-a6de-6bd409312c31,Amsterdam,Admiralengracht 38,TotalEnergie,52.366144,4.85827,TotalEnergie,AC,22,1057 EZ
351,709cf9cb-5c5f-4cd5-92b0-b23c330e3ef8,Amsterdam,Nieuwe Amstelstraat 65,TotalEnergie,52.366831,4.902603,TotalEnergie,AC,22,1011 PL
352,70ae87be-13e4-48e1-9940-901056fa04e0,Amsterdam,Kastelenstraat 73,TotalEnergie,52.32606,4.882375,TotalEnergie,AC,22,1083 CC
353,70e57a81-8c5b-47c1-af6f-5137615a4e3f,Amsterdam,Soembawastraat 88,TotalEnergie,52.363084,4.94349,TotalEnergie,AC,22,1095 XE
354,70eb5f77-8355-47d6-9616-7dd3a7d15f18,Amsterdam,Corversbosstraat 20,TotalEnergie,52.391981,4.960641,TotalEnergie,AC,22,1024 KK
355,7101c0ef-c2b5-4327-b36e-00b998e57238,Amsterdam,Marco Polostraat 45,TotalEnergie,52.366426,4.856493,TotalEnergie,AC,22,1057 WD
356,71444FD9-9C29-4055-B1D7-4540145509CF,Amsterdam,Markengouw 430,TotalEnergie,52.397981,4.956909,TotalEnergie,AC,22,1024 EK
357,717b2f84-32dc-46bd-bb3d-ae1859176a41,Amsterdam,Van Spilbergenstraat 98,TotalEnergie,52.367148,4.851572,TotalEnergie,AC,22,1057 RM
358,71B3E0CA-087D-4123-90FD-1F882EED447B,Amsterdam,Kleine Wittenburgerstraat 213,TotalEnergie,52.371648,4.922173,TotalEnergie,AC,22,1018 LT
359,7239071a-98b2-4f00-b3b2-c8f24621ab39,Amsterdam,Meteorenweg 221,TotalEnergie,52.413866,4.883257,TotalEnergie,AC,22,1033 HA
360,7256d83a-02e5-4034-9c7e-4a4e7e8e86a4,Amsterdam,Johannes Verhulststraat 196,TotalEnergie,52.353117,4.866793,TotalEnergie,AC,22,1075 HE
361,725BFF96-9E4D-4EF6-B93E-135FC5DE3819,Amsterdam,Leeuwendalersweg 18,TotalEnergie,52.380235,4.849115,TotalEnergie,AC,22,1055 EZ
362,727d6377-a805-479f-be7e-aa5c505e688a,Amsterdam,Gooise Kant 14,TotalEnergie,52.316059,4.964989,TotalEnergie,AC,22,1104 MJ
363,72ef668d-8bd8-4ec4-91a9-d73f4474e76e,Amsterdam,Geervliet 235,TotalEnergie,52.329823,4.880459,TotalEnergie,AC,22,1082 NR
364,7329b3ea-fd2f-4bfb-b091-529fd2c5dd3d,Amsterdam,Cornelis Lelylaan 57,TotalEnergie,52.357478,4.832086,TotalEnergie,AC,22,1065 CK
365,733b3102-b2e0-4d2c-bdf5-12d6ad0e054f,Amsterdam,Palembangstraat 20,TotalEnergie,52.360216,4.935152,TotalEnergie,AC,22,1094 TH
366,743C9A22-BA72-40F0-8149-ED2D62D9627E,Amsterdam,s-Gravendijkdreef 102,TotalEnergie,52.322995,4.980483,TotalEnergie,AC,22,1103 SE
367,7475573c-8da1-4843-8532-df2674ead014,Amsterdam,Wittgensteinlaan 209,TotalEnergie,52.352435,4.835853,TotalEnergie,AC,22,1062 KE
368,74923E78-4B61-49E1-BC30-65E405659EA4,Amsterdam,Balgzandstraat 125,TotalEnergie,52.394389,4.957651,TotalEnergie,AC,22,1024 MJ
369,74C710EF-ABA9-442D-B802-1D6294550147,Amsterdam,Schubertstraat 29,TotalEnergie,52.34639,4.877906,TotalEnergie,AC,22,1077 GR
370,74F1A420-0F49-407B-84C2-47DDBE78E4F1,Amsterdam,Gutserstraat 29,TotalEnergie,52.407894,4.893644,TotalEnergie,AC,22,1033 RK
371,752772D1-BFD9-4890-9F73-D00005E9D79D,Weesp,Jan Prinsstraat 42,TotalEnergie,52.314161,5.036984,TotalEnergie,AC,22,1382 SP
372,75617f7e-2788-4676-92d6-ae453c7ad135,Weesp,Buitenveer 35,TotalEnergie,52.30808,5.03512,TotalEnergie,AC,22,1381 AB
373,75874E92-3856-46BB-A576-105E7E55BBDF,Amsterdam,Hondecoeterstraat 8,TotalEnergie,52.354668,4.878078,TotalEnergie,AC,22,1071 LR
374,76111de3-e8c2-4435-ac3e-344e4396935c,Amsterdam,Bolestein 718,TotalEnergie,52.324325,4.8594,TotalEnergie,AC,22,1081 EN
375,761A2347-9E3C-4521-A50E-7054EEB60A02,Amsterdam,Mercatorstraat 34,TotalEnergie,52.371519,4.850613,TotalEnergie,AC,22,1056 RH
376,7622CCCB-ACB4-4D4A-BA23-CEC862C9E255,Amsterdam,Zwanebloemlaan 304,TotalEnergie,52.352229,4.998327,TotalEnergie,AC,22,1087 JT
377,769F60F0-FA1E-43AE-A6DD-B07CF0629107,Amsterdam,Krabbendamstraat 57,TotalEnergie,52.392614,4.958024,TotalEnergie,AC,22,1024 MD
378,76FE3282-C2D6-4CE1-BD86-2C3392924710,Amsterdam,Van Bossestraat 28,TotalEnergie,52.381395,4.868549,TotalEnergie,AC,22,1051 JZ
379,771EAABF-F3BF-48E4-B472-BE707D21112E,Amsterdam,Erich Salomonstraat 239,TotalEnergie,52.357735,4.995465,TotalEnergie,AC,22,1087 EH
380,7746420d-7566-4a8a-bfcd-6a11b1f23f27,Amsterdam,Sportstraat 15,TotalEnergie,52.347363,4.860129,TotalEnergie,AC,22,1076 TP
381,78807A38-50A0-4B21-96EB-237C6A2E065D,Amsterdam,Bataviastraat 12,TotalEnergie,52.361297,4.942022,TotalEnergie,AC,22,1095 ES
382,788299d3-e325-4759-b52b-79b67bf463b4,Weesp,Sinnigvelderstraat 385,TotalEnergie,52.311839,5.028842,TotalEnergie,AC,22,1382 GB
383,78E2E956-D796-4D54-B89C-59A1A83D0605,Amsterdam,Deurloostraat 45,TotalEnergie,52.34635,4.890718,TotalEnergie,AC,22,1078 HT
384,790366e6-0aac-420e-bcfb-d43a809f7681,Amsterdam,Hudsonstraat 11,TotalEnergie,52.364772,4.854117,TotalEnergie,AC,22,1057 RW
385,796b88bc-afd5-4985-bb1c-f407a822ab8c,Amsterdam,Gerard Brandtstraat 8,TotalEnergie,52.360467,4.868084,TotalEnergie,AC,22,1054 JJ
386,79ADE4D0-8E98-4CEF-9ADD-6B9F6E6D2909,Amsterdam,Rooseveltlaan 76,TotalEnergie,52.344585,4.90021,TotalEnergie,AC,22,1078 NM
387,7A13A7CF-0106-4F46-AC19-D73A14A1B76F,Amsterdam,Adelaarsweg 59,TotalEnergie,52.38588,4.913859,TotalEnergie,AC,22,1021 BS
388,7A52F9D9-4280-4982-A453-9E24FEF638D5,Amsterdam,Boomgaardlaan 45,TotalEnergie,52.407258,4.902276,TotalEnergie,AC,22,1036 KJ
389,7A5F2E21-3FFC-405A-BBE1-9DE4737290AE,Amsterdam,Castorplein 19,TotalEnergie,52.411799,4.890376,TotalEnergie,AC,22,1033 GE
390,7A658FB6-154B-4D27-9260-1B01DAF6DECD,Amsterdam,Korenbloemstraat 46,TotalEnergie,52.399145,4.913472,TotalEnergie,AC,22,1032 GW
391,7ADB1F1E-4F2E-4320-BD11-6223FC73A3D3,Amsterdam,Waalenburgsingel 190,TotalEnergie,52.393056,4.96203,TotalEnergie,AC,22,1024 EP
392,7adca933-4f63-4eb3-be0a-4c48dacd9f3b,Weesp,Sportparklaan 169,TotalEnergie,52.31453,5.03828,TotalEnergie,AC,22,1382 SB
393,7ae144ac-fadb-48d8-8ab5-3998d3c266c7,Amsterdam,Bilderdijkkade 30,TotalEnergie,52.369703,4.86857,TotalEnergie,AC,22,1053 VD
394,7b53451f-4328-415a-8a9d-ca081dd00341,Amsterdam,Ingenieur Jakoba Mulderplein 59,TotalEnergie,52.366088,4.924616,TotalEnergie,AC,22,1018 MZ
395,7baaae47-e2f2-403c-9eec-89ef5ddc21c5,Weesp,Achtergracht 34,TotalEnergie,52.30742,5.03881,TotalEnergie,AC,22,1381 BN
396,7bd0f3d9-868f-4d8c-a5fe-c6c724a9c19b,Amsterdam,Derde Oosterparkstraat 209,TotalEnergie,52.357688,4.921038,TotalEnergie,AC,22,1092 EA
397,7BD1B58E-1C47-464F-8E52-97E4AA82A234,Amsterdam,Jan Smitstraat 15,TotalEnergie,52.351311,4.800562,TotalEnergie,AC,22,1069 RR
398,7c0dac38-2d86-4ea8-bea3-3bdbaaf58b7e,Amsterdam,Van Ostadestraat 149,TotalEnergie,52.352677,4.895214,TotalEnergie,AC,22,1073 TK
399,7C4C15F9-3373-4E39-9345-2C4559B15D37,Amsterdam,De Wittenstraat 100,TotalEnergie,52.383031,4.878291,TotalEnergie,AC,22,1052 BA
400,7c6c999c-6958-443b-9517-699b244e7e08,Amsterdam,Eosstraat 118,TotalEnergie,52.346093,4.856249,TotalEnergie,AC,22,1076 DL
401,7c74b4eb-6eb8-410d-b5fc-da04e01edc47,Weesp,M.Dotingalaan 62,TotalEnergie,52.30149,5.050345,TotalEnergie,AC,22,1381 GD
402,7c9280e8-ba11-456c-ae88-d6443f0e299a,Amsterdam,Sporadenlaan 91,TotalEnergie,52.343785,4.791618,TotalEnergie,AC,22,1060 MN
403,7CC724EC-560C-409D-B916-24C2853026AA,Amsterdam,Elpermeer 6,TotalEnergie,52.401319,4.949196,TotalEnergie,AC,22,1025 AJ
404,7D31587D-B5DB-4C89-9A55-966C197FC0F7,Amsterdam,Borneokade 163,TotalEnergie,52.370646,4.942156,TotalEnergie,AC,22,1019 XD
405,7d7d3644-06af-443a-9524-740318679fff,Amsterdam,Maarten Harpertszoon Trompstraat 11,TotalEnergie,52.372166,4.860391,TotalEnergie,AC,22,1056 HT
406,7d9fbb39-b3ec-400b-a802-ba37d3e56641,Amsterdam,Max Planckstraat 23,TotalEnergie,52.351898,4.946003,TotalEnergie,AC,22,1098 TS
407,7e361d40-cd8c-4055-83e2-9232a34564df,Weesp,Muiderslotlaan 4,TotalEnergie,52.31812,5.04167,TotalEnergie,AC,22,1382
408,7E80AEB9-F8A2-429B-A699-D55353FD3E89,Amsterdam,IJdoornlaan 261,TotalEnergie,52.39325,4.956268,TotalEnergie,AC,22,1024 KM
409,7EECBEC6-7F5F-44D1-9D84-9148001B822B,Amsterdam,Dalsteindreef 328,TotalEnergie,52.326278,4.946934,TotalEnergie,AC,22,1102 WZ
410,7f03554d-8a00-4917-9b4d-fa70d98e7793,Amsterdam,Tugelaweg 91,TotalEnergie,52.354542,4.917082,TotalEnergie,AC,22,1091 VP
411,7f4b838b-3e34-481f-8327-79f00c8a88af,Amsterdam,Dinarpromenade 9,TotalEnergie,52.346584,4.783661,TotalEnergie,AC,22,1060 SH
412,7F5BCB0E-787F-43A6-A4A6-22751AD9BF92,Amsterdam,Govert Flinckstraat 106,TotalEnergie,52.35437,4.88973,TotalEnergie,AC,22,1072 EL
413,7f90dd64-fe9f-416b-88bf-9b376ac30af1,Amsterdam,Tweede Constantijn Huygensstraat 34,TotalEnergie,52.363292,4.873015,TotalEnergie,AC,22,1054 CT
414,80F62EF0-4451-465C-9C2A-38CE30950E3B,Amsterdam,Herengracht 546,TotalEnergie,52.364795,4.896674,TotalEnergie,AC,22,1017 CG
415,810f604f-8ae7-417e-8168-6545f0c2ef5c,Amsterdam,H.T. Zwiersplantsoen 35,TotalEnergie,52.372656,4.82077,TotalEnergie,AC,22,1064 DL
416,813CEC26-7CFA-4D6E-98EF-639AC694C010,Amsterdam,Duinlustpad 2,TotalEnergie,52.396072,4.951813,TotalEnergie,AC,22,1024 BV
417,816432C4-3F44-4A43-8606-0DFB2B9A3661,Amsterdam,Jacob Marisstraat 3,TotalEnergie,52.353806,4.852366,TotalEnergie,AC,22,1058 HW
418,8174DE83-2740-4FE6-A689-90DE11B0733F,Amsterdam,Diemerparklaan 27,TotalEnergie,52.356244,4.996554,TotalEnergie,AC,22,1087 GZ
419,81ec1350-dbbd-49f3-b87e-83a31abc302d,Amsterdam,Karel du Jardinstraat 4,TotalEnergie,52.35076,4.892928,TotalEnergie,AC,22,1072 SH
420,82074809-EAA3-4582-921D-B41C30929F14,Amsterdam,Geertje Wielemaplein 1,TotalEnergie,52.371063,4.968804,TotalEnergie,AC,22,1095 MM
421,825F3BEA-6275-4A05-8A4B-EC6F15E69BD4,Amsterdam,Nicolaas Beetsstraat 245,TotalEnergie,52.364199,4.866425,TotalEnergie,AC,22,1053 RL
422,82e54f92-4cbe-4750-a0aa-e4c07ed71781,Weesp,H.J. Hoflandlaan 1,TotalEnergie,52.303741,5.048681,TotalEnergie,AC,22,1381 EL
423,84069f4f-345b-44f6-9b0a-aeeacb89b239,Amsterdam,Orteliusstraat 302,TotalEnergie,52.373115,4.84766,TotalEnergie,AC,22,1056 PN
424,848ba28c-7a65-47f7-bb0a-d7a61f90ed38,Amsterdam,KNSM-Laan 109,TotalEnergie,52.377125,4.938783,TotalEnergie,AC,22,1019 LB
425,84BE091F-0CF0-47F4-ABE8-7FFECCA817B7,Amsterdam,Bredeweg 48,TotalEnergie,52.354532,4.93162,TotalEnergie,AC,22,1098 BS
426,85FF316D-1FAD-4EDA-8324-4789A7931A01,Amsterdam,Amaliastraat 2,TotalEnergie,52.379381,4.874897,TotalEnergie,AC,22,1052 GN
427,86CF2D92-9EB0-4350-B458-402B0DFA3889,Amsterdam,L.J.M. Beelstraat 1,TotalEnergie,52.381889,4.791369,TotalEnergie,AC,22,1067 WH
428,86de99e4-203d-4efd-9e54-e9602f0caaa2,Amsterdam,Marco Polostraat 36,TotalEnergie,52.36609,4.85668,TotalEnergie,AC,22,1057 WR
429,86fea45c-3e31-4a36-8c11-565102e5e5e7,Amsterdam,Hudsonstraat 83,TotalEnergie,52.366801,4.853581,TotalEnergie,AC,22,1057 BR
430,870916c3-d471-4ef0-af04-897ffb7c27ed,Amsterdam,Bestevaerstraat 167,TotalEnergie,52.378104,4.858468,TotalEnergie,AC,22,1055 TK
431,88ddeef7-14f6-4cc4-b70e-a0c0067fd92b,Amsterdam,Cliostraat 9,TotalEnergie,52.347442,4.876332,TotalEnergie,AC,22,1077 KA
432,8971a75e-469b-4bba-b925-cb5bc310bf57,Amsterdam,Banne Buikslootlaan 260,TotalEnergie,52.407708,4.913816,TotalEnergie,AC,22,1034 DD
433,89A7F484-A746-411E-8251-2DDF86413921,Amsterdam,Sint Willibrordusdwarsstraat 6,TotalEnergie,52.354687,4.904323,TotalEnergie,AC,22,1074 XG
434,89b6aa12-062b-4cce-ab96-fd584b673e8f,Amsterdam,Elisabeth Wolffstraat 19,TotalEnergie,52.370804,4.866708,TotalEnergie,AC,22,1052 RP
435,89da0caa-52f5-4180-8938-756c37bdeffb,Amsterdam,Seinwachterstraat 59,TotalEnergie,52.374039,4.947041,TotalEnergie,AC,22,1019 TD
436,8a053983-8643-45a8-a4a6-1f2a89aee9e3,Amsterdam,Tweede Oosterparkstraat 44,TotalEnergie,52.356177,4.913735,TotalEnergie,AC,22,1091 JE
437,8A0D7DBC-2E15-46DB-B6F9-6DAAD2E0F247,Amsterdam,Van Gentstraat 62,TotalEnergie,52.384679,4.851589,TotalEnergie,AC,22,1055 PJ
438,8A4689BB-1E1E-4D1F-A8A0-BCF39BFE4694,Amsterdam,Robert Scottstraat 50,TotalEnergie,52.374825,4.845737,TotalEnergie,AC,22,1056 BA
439,8AF4FA2F-B272-488F-BF65-B3E420115161,Amsterdam,Wieringerwaardstraat 50,TotalEnergie,52.39558,4.958618,TotalEnergie,AC,22,1024 HA
440,8af5ab0e-3687-4291-a69e-9e375b9b0e93,Amsterdam,Jozef Israëlskade 9,TotalEnergie,52.34866,4.88743,TotalEnergie,AC,22,1072 RT
441,8B042630-6701-438B-B055-4E883EB5872E,Amsterdam,Voorsteven 105,TotalEnergie,52.410442,4.916245,TotalEnergie,AC,22,1034 SP
442,8bcb445c-2b9f-450b-a137-5ce950c82185,Weesp,Hugo de Grootlaan 23,TotalEnergie,52.30447,5.03906,TotalEnergie,AC,22,1381 CS
443,8BD271FF-6ED4-4F91-A7A1-B517D5C08610,Amsterdam,Arubastraat 7,TotalEnergie,52.352916,4.910746,TotalEnergie,AC,22,1058 VD
444,8C170A6A-9F19-47E1-BCF7-EECEC0CF6A6C,Amsterdam,Stichtstraat 25,TotalEnergie,52.33932,4.898287,TotalEnergie,AC,22,1079 RB
445,8CD34077-E5E2-4A9C-9269-3E207FA59A1D,Amsterdam,Professor J.H. Gunningstraat 53,TotalEnergie,52.353645,4.804301,TotalEnergie,AC,22,1068 MS
446,8d5e20ef-cbaf-4d7e-9132-6e7e21990005,Amsterdam,Jacob Obrechtplein 9,TotalEnergie,52.352707,4.878318,TotalEnergie,AC,22,1071 KS
447,8D9F4224-C451-4BDE-8A54-3D9D7414C4E3,Amsterdam,Waverstraat 48,TotalEnergie,52.346079,4.90921,TotalEnergie,AC,22,1079 VM
448,8DBCD5AF-CA54-4C1D-B0BF-CA30160CDBA5,Amsterdam,Reinier Claeszenstraat 118,TotalEnergie,52.374835,4.861806,TotalEnergie,AC,22,1056 WT
449,8dccaa65-cd9f-41d6-a092-110f3a191314,Amsterdam,Willemsparkweg 210,TotalEnergie,52.355503,4.868547,TotalEnergie,AC,22,1071 HX
450,8DD24659-8E1B-4B6B-862F-275C5269EB8B,Amsterdam,Distelweg 6,TotalEnergie,52.3914,4.911063,TotalEnergie,AC,22,1031 HE
451,8DDB89BE-A183-4926-BDD3-7C6243B49E18,Amsterdam,Wethouder Tabakstraat 11,TotalEnergie,52.291204,4.989049,TotalEnergie,AC,22,1107 DC
452,8E0CF044-0A6A-40FB-9F8E-1E66D028080C,Amsterdam,Nobelweg 1,TotalEnergie,52.35212,4.922439,TotalEnergie,AC,22,1097 AP
453,8EC03F28-382D-4755-A3A0-C16C45920B74,Amsterdam,Gillis Steltmanstraat 11,TotalEnergie,52.37471,4.804751,TotalEnergie,AC,22,1067 NN
454,8eca336e-b3c4-4d28-a29b-dca58ce19b70,Amsterdam,H. Cleyndertweg 423,TotalEnergie,52.403031,4.937075,TotalEnergie,AC,22,1025 DS
455,8f68da33-9ec6-45fd-b44f-884dfa18da65,Amsterdam,Baffinstraat 10,TotalEnergie,52.368706,4.854003,TotalEnergie,AC,22,1057 SX
456,8FA4B91B-5361-4F79-A5A9-413A4FBD8C7C,Amsterdam,Reigerweg 1,TotalEnergie,52.384817,4.912438,TotalEnergie,AC,22,1021 HC
457,8FE855DD-D3E5-42E6-82B6-89D798DA8D22,Amsterdam,Da Costaplein 18,TotalEnergie,52.370318,4.873211,TotalEnergie,AC,22,1053 ZW
458,9081A18F-785D-472E-B121-FF051FA79D3B,Amsterdam,Willem de Zwijgerlaan 309,TotalEnergie,52.380397,4.861154,TotalEnergie,AC,22,1055 PZ
459,90A58AEF-B60C-48A1-942B-86A68909EB82,Amsterdam,Maldenhof 209,TotalEnergie,52.304866,4.968852,TotalEnergie,AC,22,1106 EG
460,90c3fc77-6207-49c4-a110-d3b36945adc8,Amsterdam,Bennebroekstraat 26,TotalEnergie,52.352894,4.847649,TotalEnergie,AC,22,1058 LM
461,911C1774-AD02-4690-8D4E-700492AE7819,Amsterdam,De Boelelaan 1065,TotalEnergie,52.334913,4.870332,TotalEnergie,AC,22,1082 SB
462,9141A800-5F61-42B5-8C48-973F55D92170,Amsterdam,Ubbo Emmiushof 16,TotalEnergie,52.363467,4.826383,TotalEnergie,AC,22,1065 AV
463,918652a2-51af-4c56-af1e-11834c006060,Amsterdam,Woestduinstraat 151 HS,TotalEnergie,52.349777,4.847688,TotalEnergie,AC,22,1059 SV
464,91D41EC5-9205-4084-911B-633F5B206E4C,Amsterdam,Valeriusstraat 174,TotalEnergie,52.352957,4.864516,TotalEnergie,AC,22,1075 GH
465,92069fa5-4730-45bf-a26f-5292c93239d6,Amsterdam,Nico Snijdersstraat 19,TotalEnergie,52.38185,4.830219,TotalEnergie,AC,22,1063 VD
466,920f7c01-61f1-4ddb-9474-dd2e8e7398d1,Amsterdam,Kramatweg 2,TotalEnergie,52.365858,4.944777,TotalEnergie,AC,22,1095 JM
467,933073D9-14FF-4D17-B767-39A65793609F,Amsterdam,Eerste Schinkelstraat 2,TotalEnergie,52.35414,4.855271,TotalEnergie,AC,22,1075 TX
468,94184c5e-8c40-413e-84c7-eeb88d29dff5,Amsterdam,Meer en Vaart 2,TotalEnergie,52.365838,4.803915,TotalEnergie,AC,22,1068 KV
469,94374988-39BA-4695-BC84-3F3EA4EF49D7,Amsterdam,Spuistraat 17,TotalEnergie,52.376853,4.893612,TotalEnergie,AC,22,1012 SP
470,9441beec-0829-4a39-a9ba-b73bb71b8d75,Weesp,Landscronerlaan 38,TotalEnergie,52.316755,5.038466,TotalEnergie,AC,22,1384AB
471,950bd1e2-a918-4521-a650-54ed7cd600e5,Amsterdam,Uiterwaardenstraat 98,TotalEnergie,52.343024,4.907657,TotalEnergie,AC,22,1079 CE
472,953B0BDC-BD0F-40C3-BAEA-821FCCBFD7C5,Amsterdam,Diemerparklaan 15,TotalEnergie,52.35547,4.995449,TotalEnergie,AC,22,1087 GN
473,956cba73-dd4c-4bd7-b22d-1b51a58a90f1,Amsterdam,Eerste Helmersstraat 255,TotalEnergie,52.360866,4.864921,TotalEnergie,AC,22,1054 DZ
474,958619CD-0B77-4662-A6A4-6EF920F4084B,Amsterdam,Willemsparkweg 59,TotalEnergie,52.357287,4.875645,TotalEnergie,AC,22,1071 GS
475,95c92478-ef86-4866-a36e-62c1c5b67a1d,Amsterdam,Mijehof 61,TotalEnergie,52.302482,4.970541,TotalEnergie,AC,22,1106 HB
476,961f4d83-efc9-4350-8d49-88193a7d88dc,Amsterdam,Burgemeester Vening Meineszlaan 119,TotalEnergie,52.382924,4.82924,TotalEnergie,AC,22,1063 AX
477,96453DA3-6495-45E1-B8C5-1B7FCCE9D5AE,Amsterdam,Osdorpplein 251,TotalEnergie,52.360499,4.82587,TotalEnergie,AC,22,1068 ER
478,9651D2F9-494C-4A8B-8CCD-39F51AAE0737,Amsterdam,Boris Pasternakstraat 379,TotalEnergie,52.317938,4.943418,TotalEnergie,AC,22,1102 TD
479,96910831-FCF2-495A-B85A-1D8B685FA1E1,Amsterdam,Kanaalstraat 157,TotalEnergie,52.361187,4.859502,TotalEnergie,AC,22,1054 XE
480,97525A3D-336F-4EB2-8FA5-2FC47DCADAF8,Amsterdam,Banne Buikslootlaan 72,TotalEnergie,52.404942,4.910202,TotalEnergie,AC,22,1069 HT
481,977f2707-e829-43a3-9042-f4b7764008fc,Amsterdam,Boomgaardlaan 30,TotalEnergie,52.405862,4.901167,TotalEnergie,AC,22,1036 KJ
482,98259161-72F7-4CA2-A380-8A7FCF3E28F2,Amsterdam,Klieverinkweg 1,TotalEnergie,52.31407,4.983646,TotalEnergie,AC,22,1104 HS
483,98339f3b-ef88-4f29-90c2-d738c7b7c571,Amsterdam,Floraweg 167,TotalEnergie,52.399782,4.912325,TotalEnergie,AC,22,1032 ZC
484,98367693-7818-4d31-95af-2eda0c5967c6,Amsterdam,Vogelenzangstraat 44,TotalEnergie,52.354244,4.847176,TotalEnergie,AC,22,1058 SV
485,98378be7-ec83-46fe-a66e-72a53a47bcb5,Weesp,De Kleine Weer 17,TotalEnergie,52.30161,5.04362,TotalEnergie,AC,22,1383 BC
486,987B9E0F-5572-4208-B91A-ED6FAA5E50B9,Amsterdam,Den Texstraat 1,TotalEnergie,52.358972,4.893204,TotalEnergie,AC,22,1017 XW
487,98BAE07B-82EB-454C-94AB-C9B37B0387C2,Amsterdam,Koningslaan 2,TotalEnergie,52.35505,4.867993,TotalEnergie,AC,22,1075 AC
488,9952D8A9-4A4C-419A-8E94-9C486C58243D,Amsterdam,Cycladenlaan 4,TotalEnergie,52.348091,4.792624,TotalEnergie,AC,22,1060 MB
489,99998e18-bc68-41fc-b00b-7e780cb01d3a,Amsterdam,Laan van Vlaanderen 17,TotalEnergie,52.349807,4.816135,TotalEnergie,AC,22,1066 MN
490,99c3768e-0251-484d-a60c-6b149d117ec1,Amsterdam,Willebroekstraat 62,TotalEnergie,52.344316,4.805218,TotalEnergie,AC,22,1066 WE
491,9A3EB041-84BF-48AB-B1EC-880DC5B6CF72,Amsterdam,Maldenhof 391,TotalEnergie,52.303718,4.967841,TotalEnergie,AC,22,1106 EL
492,9A6ADD31-784E-4BEB-869B-514AB2136935,Amsterdam,Troelstralaan 287,TotalEnergie,52.374565,4.801397,TotalEnergie,AC,22,1067 JV
493,9a98c999-dca4-45dd-af00-c4ad9b496ca8,Amsterdam,Orteliusstraat 231,TotalEnergie,52.370957,4.848665,TotalEnergie,AC,22,1056 NR
494,9A9C96DA-DEF2-412A-8BC8-7A17B29E7449,Amsterdam,Zuidelijke Wandelweg 54,TotalEnergie,52.338244,4.898234,TotalEnergie,AC,22,1079 RP
495,9af975a8-4478-4015-8452-3d96d134ac4e,Amsterdam,Wibautstraat 24,TotalEnergie,52.357768,4.909554,TotalEnergie,AC,22,1091 GM
496,9B572DE1-4FA5-47F8-81BB-0BE777BEB4B0,Amsterdam,Griftstraat 2,TotalEnergie,52.342675,4.900167,TotalEnergie,AC,22,1079 ZA
497,9b692e66-b2a1-4c89-a33e-415c66ae4c3a,Amsterdam,Anske Lammingastraat 6,TotalEnergie,52.357032,4.823092,TotalEnergie,AC,22,1065 GG
498,9b9bc791-1081-4824-9c27-9cae217bfd70,Amsterdam,Vorticellaweg 2a,TotalEnergie,52.41646,4.91233,TotalEnergie,AC,22,1035 VB
499,9bb2fca1-c9ba-4953-bb16-8dd1119cd36f,Amsterdam,Spadinalaan 30,TotalEnergie,52.386506,4.900261,TotalEnergie,AC,22,1031 KB
500,9bde5d5d-0ef1-4c14-b9ab-873282b416af,Amsterdam,Compagniestraat 56,TotalEnergie,52.369077,4.923973,TotalEnergie,AC,22,1018 HL
501,9CBD83BE-8DD3-4633-87B6-9C326B89BBA4,Weesp,Diemerdijkstraat 13,TotalEnergie,52.3092,5.03203,TotalEnergie,AC,22,1382 BN
502,9D651BB0-FB46-44C7-B2BE-B77C864B058E,Amsterdam,Eerste Helmersstraat 159,TotalEnergie,52.362014,4.869553,TotalEnergie,AC,22,1054 DR
503,9D6E0D6D-E1D1-400D-B7A2-CEE4AE60DA35,Amsterdam,Hygiëaplein 50,TotalEnergie,52.34711,4.863672,TotalEnergie,AC,22,1076 RW
504,9d8f7eb1-4c5b-45e7-ae5c-1571516353f5,Amsterdam,Michelangelostraat 37,TotalEnergie,52.348374,4.87121,TotalEnergie,AC,22,1077 BR
505,9DC2B1C3-6BD7-4AE7-940A-0462334427D6,Amsterdam,Rozengracht 214,TotalEnergie,52.372578,4.876995,TotalEnergie,AC,22,1016 NL
506,9DD1361C-588C-4F2E-B9B8-BFA0AF4CE5B9,Amsterdam,Servaes Noutsstraat 2,TotalEnergie,52.355123,4.903199,TotalEnergie,AC,22,1074 ED
507,9de4cf4b-dca9-4100-9ffb-c6af43b36b0d,Amsterdam,Kazernestraat 2,TotalEnergie,52.364455,4.921083,TotalEnergie,AC,22,1018 CC
508,9e448a23-a601-448e-8a6d-4f9003170b84,Amsterdam,Nepveustraat 27,TotalEnergie,52.3611,4.85662,TotalEnergie,AC,22,1058 XM
509,9E451735-583D-4BA1-A2E7-AD9BB74B79F4,Weesp,Fanny Blankers-Koenstr 2,TotalEnergie,52.31554,5.03231,TotalEnergie,AC,22,1382NB
510,9E6765A2-2658-4E54-A2B4-74361BEE5766,Amsterdam,Daniel Stalperstraat 77,TotalEnergie,52.356208,4.891004,TotalEnergie,AC,22,1072 XC
511,9EB6754E-4D52-4D13-A2B4-0D0D7B4BAAB6,Amsterdam,Kastelenstraat 137,TotalEnergie,52.325873,4.877235,TotalEnergie,AC,22,1082 CL
512,9f50d6eb-fece-4c2c-aba2-b3a7093314f9,Amsterdam,Westbroekstraat 24,TotalEnergie,52.295902,4.984025,TotalEnergie,AC,22,1107 KB
513,9F9AC605-418F-4CC8-A74D-CAC71BC5ABF7,Amsterdam,Johannes van der Waalsstraat  42,TotalEnergie,52.352048,4.941874,TotalEnergie,AC,22,1098 PN
514,9fa4333b-ba29-41d2-9ef1-2ea51b510595,Amsterdam,Haarlemmer Houttuinen 189,TotalEnergie,52.381774,4.890658,TotalEnergie,AC,22,1013 GM
515,a0dc5dd5-fa07-4b44-a148-58a871104f10,Amsterdam,Dubbelink 11,TotalEnergie,52.322956,4.949948,TotalEnergie,AC,22,1102 AL
516,A10043C4-6E6A-4956-A8F4-3B38469A5A5F,Amsterdam,Johannes Vermeerstraat 26,TotalEnergie,52.356063,4.883751,TotalEnergie,AC,22,1071 DR
517,a1319ec7-4eb7-445b-8bd0-2139c849ccde,Amsterdam,Marconistraat 9,TotalEnergie,52.351755,4.944009,TotalEnergie,AC,22,1098 TG
518,a15151ec-ec3e-4310-9882-10db1222ed60,Weesp,Gasthuisland 13,TotalEnergie,52.300567,5.040754,TotalEnergie,AC,22,1383 GA
519,A153D489-7BE4-4A4C-A329-A76C30530F19,Amsterdam,Kometensingel 88,TotalEnergie,52.415407,4.891621,TotalEnergie,AC,22,1033 BX
520,a1e588c7-ecc1-442d-ad84-35df1a99df9d,Amsterdam,Jisperveldstraat 504,TotalEnergie,52.399912,4.95142,TotalEnergie,AC,22,1024 BA
521,A23E8C48-23B9-415F-8E44-F355FEB5E5A1,Amsterdam,Adriaan Kluitstraat 9,TotalEnergie,52.362907,4.832536,TotalEnergie,AC,22,1065 XS
522,A316EC41-A351-44AB-9545-83412F42D3BE,Amsterdam,Frieslandstraat 127,TotalEnergie,52.333505,4.876813,TotalEnergie,AC,22,1082 TM
523,A373A4F5-F935-4999-BB53-A25DEDB4A80B,Amsterdam,Hugo de Grootkade 20,TotalEnergie,52.373381,4.873828,TotalEnergie,AC,22,1052 LS
524,A400673C-1EBE-47E7-9EC0-BA9493F4B422,Amsterdam,Dwergvinvisstraat 13,TotalEnergie,52.422319,4.884926,TotalEnergie,AC,22,1035 HM
525,A4472041-96E4-4FC5-9D57-CCA3A8D7F7DB,Weesp,Hogeweyselaan 73,TotalEnergie,52.3126,5.02664,TotalEnergie,AC,22,1382 JK
526,A44C9277-8BB0-4A82-A8A0-B18F69E6AB44,Amsterdam,Celsiusstraat 21,TotalEnergie,52.342387,4.925129,TotalEnergie,AC,22,1097 PD
527,A4571CCD-F6A9-42E8-8F58-81146C0859EF,Amsterdam,Banneplein 1,TotalEnergie,52.419634,4.869232,TotalEnergie,AC,22,1034 DK
528,a4802021-6c24-4cd0-8e8e-e5c8df56dd5b,Weesp,Willem de Mérodestraat 2,TotalEnergie,52.31292,5.03859,TotalEnergie,AC,22,1382 TD
529,A5B04C7B-7655-4C8C-A755-012F2D570E0A,Amsterdam,Albrecht Dürerstraat 43,TotalEnergie,52.347689,4.876025,TotalEnergie,AC,22,1077 LX
530,A5C0A60C-A612-40F6-891B-F398AA8628C6,Amsterdam,Wethouder Wierdelsstraat 118,TotalEnergie,52.290629,4.991951,TotalEnergie,AC,22,1107 DL
531,a613fa78-a64e-4861-8115-48cd7a4c4e4b,Amsterdam,Pasteurstraat 40,TotalEnergie,52.348614,4.936862,TotalEnergie,AC,22,1097 EV
532,A626F1FD-088D-4A02-9954-89C4ABA83E66,Amsterdam,Tt. Vasumweg 16,TotalEnergie,52.402435,4.897336,TotalEnergie,AC,22,1033 SC
533,A659CA9D-69FF-4FFA-AD19-FE41F009DBBA,Amsterdam,Vrijheidslaan 69,TotalEnergie,52.346252,4.90676,TotalEnergie,AC,22,1079 KG
534,A693C058-9255-47FD-A78C-2B6240B93B04,Amsterdam,Nieuwevaart 218,TotalEnergie,52.369177,4.91823,TotalEnergie,AC,22,1018 ZN
535,a6a696cf-31fb-4806-8cdd-23322af4a2fb,Amsterdam,Legmeerplein 12,TotalEnergie,52.35309,4.851268,TotalEnergie,AC,22,1058 NL
536,a6ef3a85-117f-4bc7-a296-c7de611dbbb1,Amsterdam,Vogelenzangstraat 34,TotalEnergie,52.354242,4.847593,TotalEnergie,AC,22,1058 ST
537,a747735a-5b6f-435a-9ad0-872ae6899fc6,Amsterdam,Bijlmerdreef 887,TotalEnergie,52.320201,4.967196,TotalEnergie,AC,22,1103 TC
538,A7715E35-AEE8-4D96-85E0-808E85223DDD,Amsterdam,Dintelstraat 41,TotalEnergie,52.343729,4.893422,TotalEnergie,AC,22,1078 VP
539,A86BBF43-84B7-49A8-8864-BC55397AE0F7,Amsterdam,Orteliusstraat 63,TotalEnergie,52.365904,4.851054,TotalEnergie,AC,22,1057 AS
540,A87F59D3-8AF2-45AF-9C5F-C95A24F63436,Amsterdam,Burgemeester Röellstraat 21,TotalEnergie,52.373103,4.834091,TotalEnergie,AC,22,1064 BJ
541,a8881dd5-610d-4855-90ea-d4d4d4330dd0,Amsterdam,Rijtuigenhof 79,TotalEnergie,52.358947,4.862729,TotalEnergie,AC,22,1054 NB
542,A8C7E33D-0B10-42BB-93B0-7AB58F2F10FA,Amsterdam,Dirk Vreekenstraat 137,TotalEnergie,52.3704,4.93571,TotalEnergie,AC,22,1019 DP
543,A8E0941F-190D-43B4-A002-D60089E19D5E,Amsterdam,Bonairestraat 61,TotalEnergie,52.361605,4.855232,TotalEnergie,AC,22,1058 XD
544,A8FA4C48-B863-4FFC-A80B-85079BC7AC3C,Amsterdam,Florence Nightingalestraat 2,TotalEnergie,52.393946,4.93291,TotalEnergie,AC,22,1025 KV
545,AA4DF47D-D1DC-4AEA-BA3C-FFA815D9B221,Amsterdam,Korte Keizersstraat 10,TotalEnergie,52.371236,4.902742,TotalEnergie,AC,22,1011 GH
546,ab338ec7-cd57-42e8-8e36-ff78099d8efd,Weesp,Aquamarin 66,TotalEnergie,52.310194,5.024731,TotalEnergie,AC,22,1382 KM
547,AB53407E-2824-4526-A5D3-33AB928B1F58,Amsterdam,Plantage Badlaan 24,TotalEnergie,52.364303,4.916959,TotalEnergie,AC,22,1018 TJ
548,ab5c53a1-7de3-4db4-b1d3-f1165d150542,Amsterdam,Binnenkant 1,TotalEnergie,52.374788,4.903642,TotalEnergie,AC,22,1011 BG
549,ab620352-4e0e-43e9-85cd-dba95413e531,Amsterdam,Van Tuyll van Serooskerkenweg 27,TotalEnergie,52.344455,4.862973,TotalEnergie,AC,22,1076 JB
550,AB6C3291-51B6-496B-83B8-5F087CBF6CA1,Weesp,Achtergracht 86 a,TotalEnergie,52.305785,5.041183,TotalEnergie,AC,22,1381 BR
551,AB954F3B-DF45-4557-8857-2E03B71720C1,Amsterdam,Lex Althoffstraat 27,TotalEnergie,52.37885,4.829656,TotalEnergie,AC,22,1063 ZM
552,ACEA7BD1-CC44-4613-AC95-8737236BAA5F,Amsterdam,Banne Buikslootlaan 170,TotalEnergie,52.406603,4.912282,TotalEnergie,AC,22,1034 BE
553,AD9545F4-BCAD-44B0-A26E-1EBB44185A08,Amsterdam,Nieuwe Kerkstraat 103C,TotalEnergie,52.364465,4.906951,TotalEnergie,AC,22,1018 VH
554,AD96C3F6-76E2-49A6-AE1C-328B85DA54C2,Amsterdam,Pieter Langendijkstraat 47,TotalEnergie,52.359962,4.861633,TotalEnergie,AC,22,1054 XZ
555,ADDB08E2-591B-4D6D-A650-54A736E2FD4B,Amsterdam,Schoenerstraat 30,TotalEnergie,52.403245,4.911249,TotalEnergie,AC,22,1034 XG
556,adf8f0a4-d624-4343-ad12-0c006a5dd30a,Amsterdam,Borneostraat 1,TotalEnergie,52.365596,4.933652,TotalEnergie,AC,22,1094 CE
557,ae7a4981-d6cd-419b-9d50-4ee70126927b,Amsterdam,Delistraat 46,TotalEnergie,52.365365,4.933604,TotalEnergie,AC,22,1094 CX
558,ae9d185e-9b30-46d9-86c0-ae451bde153f,Amsterdam,Galileïplantsoen 68,TotalEnergie,52.353983,4.94054,TotalEnergie,AC,22,1098 NB
559,af003489-b005-4d29-986f-995d544a6bd6,Amsterdam,Dostojevskisingel 137,TotalEnergie,52.323973,4.947655,TotalEnergie,AC,22,1102 XL
560,AF09D140-96F8-4C39-B50E-DBBABF6EE1F4,Amsterdam,IJburglaan 464,TotalEnergie,52.361752,4.982251,TotalEnergie,AC,22,1086 ZJ
561,AFC95310-F9D7-4128-9501-D189A0E16671,Amsterdam,Sarphatipark 135,TotalEnergie,52.35447,4.898956,TotalEnergie,AC,22,1073 CX
562,aff3e6d9-799b-4446-9a0f-8990b232b38a,Amsterdam,Vorselaarstraat 72,TotalEnergie,52.348689,4.805407,TotalEnergie,AC,22,1066 PT
563,b0331a71-b5fc-4070-b779-eacf4c26ca14,Amsterdam,Pieter Cornelisz Hooftstraat 173,TotalEnergie,52.358935,4.875929,TotalEnergie,AC,22,1071 BW
564,b0aacc3c-4520-4300-af25-76e03d4dc7b6,Amsterdam,Staringstraat 17,TotalEnergie,52.361251,4.862854,TotalEnergie,AC,22,1054 VN
565,b1064c1e-3d99-4d39-8813-34b83d79a14f,Amsterdam,Jan Luijkenstraat 11,TotalEnergie,52.359697,4.881261,TotalEnergie,AC,22,1071 CJ
566,B11252C1-3BDA-4D56-BBB3-4F8C81EBE455,Amsterdam,Mauritsstraat 40,TotalEnergie,52.359061,4.906986,TotalEnergie,AC,22,1091 DA
567,B183ACF4-0B39-444C-BFE9-8DED8D9B574A,Amsterdam,Erasmusgracht 11,TotalEnergie,52.375259,4.847831,TotalEnergie,AC,22,1056 BB
568,b1f3d781-ba96-4c0d-8830-1e88fc98cc89,Amsterdam,Commelinstraat 1,TotalEnergie,52.363287,4.923739,TotalEnergie,AC,22,1093 TE
569,b2bf262d-3b77-4f51-a26f-8bff2d24621a,Amsterdam,Willem Schoutenstraat 49,TotalEnergie,52.366876,4.850915,TotalEnergie,AC,22,1057 DM
570,b3045405-45c9-4c54-8486-f1010699cf5d,Amsterdam,Jacob Obrechtstraat 26,TotalEnergie,52.356075,4.875232,TotalEnergie,AC,22,1071 KM
571,b318fb28-b7d9-418a-98fa-59d010e7727b,Amsterdam,Sumatrakade 1435,TotalEnergie,52.379723,4.923992,TotalEnergie,AC,22,1019 RR
572,b329937d-f482-4100-93ba-9a0b19b0ed20,Amsterdam,Frederiksplein 45,TotalEnergie,52.360523,4.901041,TotalEnergie,AC,22,1017 XL
573,B3408214-CF36-4390-B401-B39D9B537AF4,Amsterdam,Da Costakade 160,TotalEnergie,52.367996,4.87289,TotalEnergie,AC,22,1053 XD
574,b3a0e58c-7cfe-4c3a-8015-1a550938ac21,Amsterdam,Columbusplein 41,TotalEnergie,52.36506,4.855417,TotalEnergie,AC,22,1057 TR
575,B3A27DF9-A7E7-4E39-991D-F92F7026B538,Amsterdam,Grootzeilhof 90,TotalEnergie,52.40875,4.923216,TotalEnergie,AC,22,1034 MA
576,B3B374C3-4668-42F2-8181-27423B79CECA,Amsterdam,Oosterpark 46,TotalEnergie,52.358819,4.920824,TotalEnergie,AC,22,1092 BR
577,b3b794ae-dfc1-43a6-88cd-d45ce9ebf475,Amsterdam,Bonairestraat 91,TotalEnergie,52.36249,4.855199,TotalEnergie,AC,22,1058 XG
578,b3b94bd2-5549-4e28-a7f8-1d3f55d18bf8,Weesp,Meester J.C. Bührmannlaan 31,TotalEnergie,52.30079,5.05075,TotalEnergie,AC,22,1381 GJ
579,B3FFEF2F-BA17-427C-B5A9-1CA1CEA530BA,Amsterdam,Hemonystraat 21,TotalEnergie,52.357567,4.902245,TotalEnergie,AC,22,1074 BL
580,B420733C-A428-472A-8ADE-D0B442EFA21D,Amsterdam,Planciusstraat 63,TotalEnergie,52.386016,4.884404,TotalEnergie,AC,22,1013 MG
581,b4306abc-6ec1-4b02-ae65-1f11b66396ef,Amsterdam,Rietwijkerstraat 41,TotalEnergie,52.34985,4.848464,TotalEnergie,AC,22,1059 VW
582,b4363ab6-5e48-4453-bdb9-6ae4d97d98fa,Amsterdam,Faas Wilkesstraat 123a,TotalEnergie,52.374035,4.966604,TotalEnergie,AC,22,1095 MD
583,b5cb88ee-ccd8-4c8c-99d6-dfa339f533da,Amsterdam,Paramaribostraat 137,TotalEnergie,52.362326,4.854279,TotalEnergie,AC,22,1058 VK
584,B5F71B1C-7871-40A6-950D-7621B6D54B74,Amsterdam,Monnikendammerweg 35,TotalEnergie,52.388147,4.94905,TotalEnergie,AC,22,1023 EA
585,b6245036-731a-4b38-9707-0daa9592b661,Amsterdam,Marcantilaan 25,TotalEnergie,52.375515,4.868285,TotalEnergie,AC,22,1051 LP
586,B63165DD-3464-4A5D-A3BF-9E6A2E7BE1EA,Amsterdam,Pieter van der Doesstraat 70,TotalEnergie,52.37347,4.85821,TotalEnergie,AC,22,1056 VK
587,B6B8F7DA-47D3-4F74-888F-E2DD869782EF,Weesp,Kostverlorenstraat 887,TotalEnergie,52.31116,5.03393,TotalEnergie,AC,22,1382 DD
588,b6f4662d-866c-460d-9c54-0d9b10baecb3,Amsterdam,Ethekwini 45,TotalEnergie,52.324015,4.966202,TotalEnergie,AC,22,1103 AW
589,B6F64192-F3D5-40AA-B19F-8BE33F6B87B9,Amsterdam,Voordek 25,TotalEnergie,52.411372,4.91655,TotalEnergie,AC,22,1034 ST
590,B74EF8B9-88DD-4A65-8DCA-9E96A07776E1,Amsterdam,Blasiusstraat 35,TotalEnergie,52.356532,4.908811,TotalEnergie,AC,22,1091 CJ
591,b7b43232-7388-4382-8f54-ba4189772b33,Amsterdam,Bocholtstraat 130,TotalEnergie,52.346574,4.812949,TotalEnergie,AC,22,1066 MK
592,b7d793e3-4d37-423d-9d0c-07854d1e7ed1,Amsterdam,Hoofdweg 12,TotalEnergie,52.3595,4.853478,TotalEnergie,AC,22,1058 BC
593,b7dab53a-a5fa-42b7-99fc-ff8a7145364d,Amsterdam,Plantage Doklaan 6,TotalEnergie,52.353578,4.794903,TotalEnergie,AC,22,1018 CM
594,B803864B-0EB1-46E5-972D-FDE4EAED5CE7,Amsterdam,3e Kekerstraat 63,TotalEnergie,52.312704,4.980017,TotalEnergie,AC,22,1104 VC
595,B8509CDB-38A3-4296-A858-E43B1022B397,Amsterdam,Gerard Callenburgstraat 41,TotalEnergie,52.378691,4.859194,TotalEnergie,AC,22,1055 VB
596,B91D1E24-B59E-42EA-8BD6-5B58878B8D4F,Amsterdam,Willemsstraat 162,TotalEnergie,52.381085,4.883504,TotalEnergie,AC,22,1015 JE
597,b92c9cb4-33ae-4fbb-976e-3ac92110b422,Amsterdam,Tweede Jan Steenstraat 91B,TotalEnergie,52.356776,4.902425,TotalEnergie,AC,22,1074 CM
598,b991eec3-dd03-46dd-ae64-95b27c66c4e2,Amsterdam,Oranje Nassaulaan 48,TotalEnergie,52.354232,4.857933,TotalEnergie,AC,22,1075 AS
599,B9B7D0FB-CC9D-4263-8450-F15553ACFBD2,Amsterdam,Eerste Oosterparkstraat 105,TotalEnergie,52.356178,4.910437,TotalEnergie,AC,22,1091 GW
600,ba18ce80-ec0d-42f9-80d9-3697c57b56c5,Weesp,Landscronerlaan 24,TotalEnergie,52.316494,5.039705,TotalEnergie,AC,22,1384 AB
601,BA35AA7E-7DC6-4B6C-8E1C-E3596DF3CEB5,Amsterdam,Camperstraat 10,TotalEnergie,52.359129,4.912627,TotalEnergie,AC,22,1091 AE
602,baf5fb80-9622-4fc5-b2f8-5a09fadc9981,Weesp,Reigersweide 199,TotalEnergie,52.300328,5.047635,TotalEnergie,AC,22,1383 KG
603,bb211992-63c7-4795-9972-c7c87aa7db9c,Amsterdam,Bataviastraat 18,TotalEnergie,52.361252,4.941994,TotalEnergie,AC,22,1095 ET
604,bb5c19b7-eb47-438b-bd5f-aef996136e3e,Amsterdam,Eerste Helmersstraat 220,TotalEnergie,52.360136,4.861725,TotalEnergie,AC,22,1054 EN
605,BC07F61E-1983-4A95-94FF-063EEDAD76C7,Amsterdam,Prins Hendrikkade 510 A,TotalEnergie,52.374648,4.904815,TotalEnergie,AC,22,1011 TE
606,bcb831b7-0194-4706-a961-c9f09ce08f49,Amsterdam,De Egmondenstraat 165,TotalEnergie,52.394541,4.948716,TotalEnergie,AC,22,1024 SG
607,BE03A32E-48EE-4BF7-9A3D-6CF1C022578E,Amsterdam,Olympiakade 19,TotalEnergie,52.349378,4.861498,TotalEnergie,AC,22,1076 XR
608,BE15E2DC-1A25-4351-8F6E-C7F1377BBE47,Amsterdam,Dijkbraak 3,TotalEnergie,52.423065,4.892523,TotalEnergie,AC,22,1035 JS
609,be556f02-a1c2-4970-b093-3a741b99e8bf,Amsterdam,Postjeskade 199,TotalEnergie,52.359998,4.850157,TotalEnergie,AC,22,1058 DV
610,beccb2e6-3c5c-4156-83ca-640cfdea9340,Amsterdam,van Eeghenstraat 8,TotalEnergie,52.35838,4.876921,TotalEnergie,AC,22,1071 GE
611,BF6BB4F2-2908-4620-9624-5291967B79E3,Amsterdam,Geuzenstraat 98,TotalEnergie,52.37333,4.864742,TotalEnergie,AC,22,1056 KH
612,bfcd080c-a226-4228-8f53-ae83fa10d1e0,Weesp,Reigersweide 11,TotalEnergie,52.298643,5.045834,TotalEnergie,AC,22,1383KA
613,bff503b8-3ab4-43f9-94c6-6968133b9db5,Amsterdam,Afrikanerplein 17,TotalEnergie,52.352591,4.917548,TotalEnergie,AC,22,1091 PP
614,c026e731-40ba-4105-8c8a-cd2e23ab0a89,Amsterdam,Groen van Prinstererstraat 46,TotalEnergie,52.383455,4.872077,TotalEnergie,AC,22,1051 EN
615,C0449589-54C0-49FE-AA0A-35E594B9932C,Amsterdam,Sassenheimstraat 45,TotalEnergie,52.348717,4.847681,TotalEnergie,AC,22,1059 BC
616,c0640865-7c7c-4a61-969e-6e673c9a0f0c,Amsterdam,Zwanebloemlaan 72,TotalEnergie,52.355444,4.992284,TotalEnergie,AC,22,1087 EP
617,C0D472DF-935C-4FEA-9F4C-66F92E7A5BD8,Amsterdam,Terpstraat 36,TotalEnergie,52.356426,4.780187,TotalEnergie,AC,22,1069 TV
618,c1248d04-ddd9-4bfc-a16a-38cd46706884,Amsterdam,Torenven 24,TotalEnergie,52.407394,4.966544,TotalEnergie,AC,22,1027 AM
619,C154945E-27BC-4DFB-9615-E283C8EDD689,Amsterdam,Ombilinstraat 1,TotalEnergie,52.358685,4.939153,TotalEnergie,AC,22,1094 NT
620,C1996486-7808-4FD1-89C2-EB40CAB7CE6C,Amsterdam,Dirk Sonoystraat 171,TotalEnergie,52.377646,4.804121,TotalEnergie,AC,22,1067 XX
621,c1e02b58-85de-4b2f-9ceb-75f2d50ee257,Amsterdam,Mijndenhof 144,TotalEnergie,52.298992,4.970451,TotalEnergie,AC,22,1106 GT
622,C22F7A88-D466-408E-BC03-E444C3D59F64,Amsterdam,Marco Polostraat 239,TotalEnergie,52.371583,4.855035,TotalEnergie,AC,22,1056 SX
623,C2665463-CBA3-47C3-8BEA-10FC60D6AB26,Amsterdam,Brisselkerkstraat 1,TotalEnergie,52.359064,4.794575,TotalEnergie,AC,22,1069 ZJ
624,c26f8be0-136f-4e89-89ef-5d748cfd032c,Amsterdam,Chasséstraat 42,TotalEnergie,52.368525,4.861728,TotalEnergie,AC,22,1057 JH
625,C33AAA25-9289-42DE-8D02-C1A9DA7E104B,Amsterdam,Gorontalostraat 211,TotalEnergie,52.363872,4.941871,TotalEnergie,AC,22,1095 WE
626,C35B4FF2-23CE-43F7-9D07-5BF1B4010F8F,Amsterdam,Johannes Hilverdinkstraat 2,TotalEnergie,52.36652,4.840211,TotalEnergie,AC,22,1061 SB
627,c37b527a-9283-4d0a-a894-aa49f1edded9,Amsterdam,Bovenover 2,TotalEnergie,52.396107,4.932695,TotalEnergie,AC,22,1025 JV
628,C37D50BD-3FFC-4363-9575-0D34A9D9F8F2,Amsterdam,Meteorensingel 76,TotalEnergie,52.408974,4.89076,TotalEnergie,AC,22,1033 CC
629,c3a67121-8260-4e1c-a2f8-50855062e4f7,Amsterdam,Sam van Houtenstraat 74,TotalEnergie,52.379322,4.799419,TotalEnergie,AC,22,1067 JP
630,c3ccc2b7-a2c8-4e70-be9e-7f81ed1c1a9f,Amsterdam,Troelstralaan 80,TotalEnergie,52.376465,4.802475,TotalEnergie,AC,22,1067 MZ
631,C47BEDE7-7C41-4FC7-AC28-B27CFA9DB793,Amsterdam,Kastelenstraat 273,TotalEnergie,52.325833,4.870381,TotalEnergie,AC,22,1082 EH
632,C49F56F9-BC57-4BE6-B8B1-F0AE1BD11482,Amsterdam,Vrolikstraat 217,TotalEnergie,52.355387,4.915027,TotalEnergie,AC,22,1091 TX
633,c4ce0f43-4d3b-48ba-8d79-adc22cb94111,Amsterdam,Dekschuitstraat 138,TotalEnergie,52.40562,4.91382,TotalEnergie,AC,22,1034 HJ
634,c50037db-f8e5-4949-b2d3-5cb65dde984f,Amsterdam,Granidastraat 1,TotalEnergie,52.379982,4.848025,TotalEnergie,AC,22,1055 HD
635,C560B6EF-0A8A-4BD9-BEE2-84A8E123CDE8,Amsterdam,Theophile de Bockstraat 37,TotalEnergie,52.354925,4.849357,TotalEnergie,AC,22,1058 TX
636,C5D2555A-A84C-4AEB-84A7-00EE71E3BA7E,Weesp,Oudegracht 65,TotalEnergie,52.306243,5.042582,TotalEnergie,AC,22,1381 XX
637,C6122DDF-999F-468A-A69C-83AA597E8803,Amsterdam,Randwijkhof 69,TotalEnergie,52.295129,4.969862,TotalEnergie,AC,22,1106 JZ
638,C707E9FE-A2B4-4BCC-B4BA-F88BADF4E5F4,Amsterdam,Boymansweg 13,TotalEnergie,52.365275,4.827215,TotalEnergie,AC,22,1064 WR
639,C75CA109-C8E9-482F-8B84-175B12770583,Amsterdam,Orteliusstraat 149,TotalEnergie,52.368411,4.849898,TotalEnergie,AC,22,1057 AX
640,c77ee06e-5486-43c3-b9b1-e0963720f1ec,Amsterdam,Eenhoornhof 17,TotalEnergie,52.415826,4.878705,TotalEnergie,AC,22,1033 XE
641,c80a96cb-d9ac-4c74-9ec0-b770160ebb50,Amsterdam,Steve Bikoplein 7,TotalEnergie,52.35569,4.924,TotalEnergie,AC,22,1092 GM
642,C9325E6F-4446-4853-A5A5-B5A255A60852,Amsterdam,Marcantilaan 1,TotalEnergie,52.37546,4.867708,TotalEnergie,AC,22,1051 LN
643,C9529FF1-B5D1-4C05-805D-E357745B3BAD,Amsterdam,Dorpsweg Ransdorp 45,TotalEnergie,52.392259,4.993769,TotalEnergie,AC,22,1028 BK
644,C987BCF5-3F66-4E9A-99E3-27546E59E94A,Amsterdam,Johanna Naberstraat 6,TotalEnergie,52.31971,4.96326,TotalEnergie,AC,22,1103 DN
645,c9a5ff15-38e5-4c6c-991d-af5fb02b1930,Amsterdam,Nicolaas Maesstraat 109,TotalEnergie,52.354216,4.87865,TotalEnergie,AC,22,1071 PV
646,CB310D04-2236-4299-ABC7-4CF98310F4B4,Amsterdam,Diamantstraat 15,TotalEnergie,52.35208,4.90559,TotalEnergie,AC,22,1074 GA
647,CBB3E8E4-DE73-481B-8A2A-AD05A2BE6478,Amsterdam,Markengouw 127,TotalEnergie,52.392527,4.96087,TotalEnergie,AC,22,1024 CX
648,cbb7eb4a-9d29-471e-8876-37bb5da676f3,Amsterdam,Palmstraat 91,TotalEnergie,52.381392,4.882313,TotalEnergie,AC,22,1015 HR
649,CC2DC331-AB6C-4EB5-BF55-9F581C03B6F7,Amsterdam,Jacob van Lennepkade 65,TotalEnergie,52.365551,4.874096,TotalEnergie,AC,22,1054 ZH
650,cc82e348-2376-45df-b9b4-2d5bc4db7b75,Amsterdam,Churchill-laan 23,TotalEnergie,52.346391,4.901298,TotalEnergie,AC,22,1078 NK
651,cd1b9c6b-dae5-4ece-8e16-54ed8cbee9b8,Weesp,Fanny Blankers-Koenstraat 2,TotalEnergie,52.315883,5.032572,TotalEnergie,AC,22,1382 NB
652,cd82ef13-a3d9-48de-82e3-0c2ee277c099,Amsterdam,Jacob van Lennepstraat 40,TotalEnergie,52.366555,4.874883,TotalEnergie,AC,22,1053 HK
653,cdbadf39-216a-4992-807a-dad82fbc95aa,Amsterdam,Valeriusstraat 266,TotalEnergie,52.35156,4.858794,TotalEnergie,AC,22,1075 GM
654,CDDEC729-E428-476E-A6DB-715B6A4BC70A,Amsterdam,Nieuwe Osdorpergracht 251,TotalEnergie,52.35608,4.803179,TotalEnergie,AC,22,1068 HV
655,CE11CBE2-18DA-4E8C-A983-CFF1C8B82D3C,Amsterdam,Johannes Vermeerstraat 28,TotalEnergie,52.355676,4.883754,TotalEnergie,AC,22,1071 DR
656,CE4704A4-119C-441C-9821-CE704F3C2036,Amsterdam,Krasseurstraat 193,TotalEnergie,52.405639,4.896103,TotalEnergie,AC,22,1033 DV
657,CE67B857-5043-415A-8495-FFFD0947BF78,Amsterdam,Kraandrijverstraat 1,TotalEnergie,52.408075,4.897016,TotalEnergie,AC,22,1033 PW
658,ceff668c-1ea6-4aa1-a385-875f2d571947,Amsterdam,Uiterwaardenstraat 77,TotalEnergie,52.34293,4.907927,TotalEnergie,AC,22,1079 BS
659,CF225FAD-F223-436D-B92C-E3E453FCD6C3,Amsterdam,Blasiusstraat 174,TotalEnergie,52.357623,4.913349,TotalEnergie,AC,22,1091 CZ
660,cf6700de-9b24-4b20-9d56-b5d736e22ab7,Amsterdam,Gaandeweg 71,TotalEnergie,52.322531,4.980133,TotalEnergie,AC,22,1103 SG
661,cf9801f5-b572-4286-9a06-15de765ff929,Amsterdam,Van Eeghenlaan 12,TotalEnergie,52.358641,4.876153,TotalEnergie,AC,22,1071 EM
662,d14d9890-b41a-4507-9b91-9a63fae33892,Amsterdam,Oudeschans 8,TotalEnergie,52.372022,4.905334,TotalEnergie,AC,22,1011 KX
663,D16380A7-E8CE-42E9-970A-AE2979427A4F,Amsterdam,Woestduinstraat 88,TotalEnergie,52.351749,4.847542,TotalEnergie,AC,22,1058 TJ
664,D1A53A30-4F7F-41DB-BA77-CB5F0DF38DB8,Amsterdam,Ertskade 151,TotalEnergie,52.373913,4.942459,TotalEnergie,AC,22,1019 ED
665,d1d998e4-b3ce-40d0-8c39-cb4fc97313b5,Amsterdam,Borgerstraat 24,TotalEnergie,52.365736,4.868901,TotalEnergie,AC,22,1053 PR
666,D33BA58B-6D5F-4909-880F-B5CBC790868E,Amsterdam,Insulindeweg 920,TotalEnergie,52.362248,4.945451,TotalEnergie,AC,22,1095 DX
667,D445E5B1-9A3B-45A1-8252-B6187DAED86A,Amsterdam,Van Walbeeckstraat 62,TotalEnergie,52.36161,4.85125,TotalEnergie,AC,22,1058 CV
668,D48E80B7-F0F0-4A70-8A00-6EA5243F2ACD,Amsterdam,President Kennedylaan 681,TotalEnergie,52.340181,4.899568,TotalEnergie,AC,22,1072 NP
669,D51B21B6-3ACC-4D9E-AE25-4973D619B578,Amsterdam,Andreas Schelfhoutstraat 65,TotalEnergie,52.357265,4.849677,TotalEnergie,AC,22,1058 HT
670,D5413476-17BB-4C3B-B8C4-DF9D66277583,Amsterdam,Tuinderijlaan 47,TotalEnergie,52.405981,4.902933,TotalEnergie,AC,22,1036 LM
671,D5742510-059F-4D45-B7B2-1C3E4F3F6E79,Amsterdam,De Kempenaerstraat 2,TotalEnergie,52.382173,4.869027,TotalEnergie,AC,22,1051 CN
672,D584ED58-1EF4-4F77-BF77-5E42F633EDC6,Amsterdam,Eerste Boerhaavestraat 14,TotalEnergie,52.358172,4.907322,TotalEnergie,AC,22,1091 SB
673,D699A200-73E8-4E73-AD76-5199115AA176,Amsterdam,Elektronstraat 12,TotalEnergie,52.392791,4.853503,TotalEnergie,AC,22,1014 AP
674,D721CD34-B672-47AB-A1B1-F6C95F8A1840,Amsterdam,Marius Meijboomstraat 1,TotalEnergie,52.351902,5.008819,TotalEnergie,AC,22,1087 LD
675,d7ee80e8-9a36-48dd-a311-fb60d1007ec1,Amsterdam,Wittenburgergracht 6,TotalEnergie,52.369982,4.918021,TotalEnergie,AC,22,1018 MT
676,d805c1b4-b90b-4925-9c6e-5613e8213d99,Amsterdam,Daniël Defoelaan 204,TotalEnergie,52.324495,4.948705,TotalEnergie,AC,22,1102 ZM
677,D82984E3-B3B7-470A-B056-90EA1C85FBC9,Amsterdam,Lomanstraat 85,TotalEnergie,52.350797,4.858273,TotalEnergie,AC,22,1075 PX
678,D84A54FB-02CA-4B3F-96CC-5EDDAB2E170B,Amsterdam,s-Gravendijkdreef 317,TotalEnergie,52.319832,4.983706,TotalEnergie,AC,22,1104 DN
679,D8BDAB9D-E41F-4803-9BEC-646346721C1E,Amsterdam,Kometensingel 52,TotalEnergie,52.415648,4.893985,TotalEnergie,AC,22,1033 BW
680,D8BF0230-5DC4-4F78-8980-D080B17EF8C7,Amsterdam,Fregatstraat 3,TotalEnergie,52.404511,4.916215,TotalEnergie,AC,22,1034 JK
681,D9538516-143F-4E90-81C3-E3F0FEFD124A,Amsterdam,Weesperzijde 19,TotalEnergie,52.357729,4.906568,TotalEnergie,AC,22,1091 EB
682,D9BC58C2-32CE-46D0-8D11-78C20AF3AD8E,Amsterdam,Erich Salomonstraat 332,TotalEnergie,52.356529,4.99773,TotalEnergie,AC,22,1087GZ
683,da182a51-5a24-4101-a495-7533579b2b53,Weesp,Fort Abcoudestraat 8,TotalEnergie,52.31697,5.04132,TotalEnergie,AC,22,1382
684,DA9E9CAA-BA79-48F0-9C9E-10F9E97DD989,Amsterdam,Willemsstraat 30,TotalEnergie,52.381285,4.884618,TotalEnergie,AC,22,1015 JD
685,db843b83-8429-46cf-96f2-f1b057b53104,Amsterdam,Emmastraat 33,TotalEnergie,52.352907,4.870378,TotalEnergie,AC,22,1071 JB
686,dd1af8e9-0fb4-49c9-8b53-009773e3d0f6,Amsterdam,Ruysdaelkade 123,TotalEnergie,52.354272,4.887126,TotalEnergie,AC,22,1072 AP
687,DDE29747-1EBA-4F33-944F-F177FAF43113,Amsterdam,Burmanstraat 8,TotalEnergie,52.354569,4.90982,TotalEnergie,AC,22,1091 SG
688,DE125B75-6232-4AF6-B15D-A1D114B62059,Amsterdam,Roseboom 2,TotalEnergie,52.419263,4.897666,TotalEnergie,AC,22,1035 XT
689,DEB30085-81DE-4B6C-B8AB-3649629F34C4,Amsterdam,Sonja Heniepad 1,TotalEnergie,52.404371,4.918162,TotalEnergie,AC,22,1034 WC
690,deca5b99-dd0a-4d7e-b814-d758da9b1ad3,Weesp,Basisweg 1,TotalEnergie,52.298223,5.027919,TotalEnergie,AC,22,1383 NC
691,df0b08b2-cf62-447e-b868-1cbba54e3022,Amsterdam,Tolstraat 91,TotalEnergie,52.352246,4.903335,TotalEnergie,AC,22,1074 VG
692,df472c54-659f-4eed-8f96-68aa643d61b3,Amsterdam,Meteorenweg 250,TotalEnergie,52.41581,4.879389,TotalEnergie,AC,22,1033 HL
693,e09f8202-7fa6-475f-9426-abdc03797f2d,Amsterdam,Niasstraat 44,TotalEnergie,52.364884,4.944561,TotalEnergie,AC,22,1095 VD
694,E0EEF883-D410-49CD-B373-A93C89630159,Amsterdam,Janusz Korczakstraat 30,TotalEnergie,52.319647,4.958079,TotalEnergie,AC,22,1102 JN
695,e14728d4-d42c-4a77-bd60-9f4b00052701,Amsterdam,Geuzenkade 84,TotalEnergie,52.374862,4.863636,TotalEnergie,AC,22,1056 KP
696,e1bfc3fb-1318-4d3f-b6da-6c88f5cba362,Weesp,Kerklaan 9,TotalEnergie,52.309314,5.040324,TotalEnergie,AC,22,1382 AK
697,e1e1e44e-9675-40fe-968e-ce919e6b77e0,Amsterdam,Willemsparkweg 125,TotalEnergie,52.356454,4.872586,TotalEnergie,AC,22,1071 GW
698,E1FBABAA-598D-4149-A70B-448798355DC6,Amsterdam,Staringstraat 1,TotalEnergie,52.362252,4.862148,TotalEnergie,AC,22,1054 VM
699,E30A493E-3A8D-4C68-BB5A-0970CC232AA8,Amsterdam,Eerste Keucheniusstraat 15,TotalEnergie,52.381256,4.872956,TotalEnergie,AC,22,1051 HP
700,e31c2e63-f50a-4994-a4cf-23e5fc7fdd58,Amsterdam,Van Beuningenstraat 179,TotalEnergie,52.381746,4.872748,TotalEnergie,AC,22,1051 XP
701,e3879653-e677-4a63-b7fa-67768738e280,Amsterdam,Scheepstimmermanstraat 57,TotalEnergie,52.372304,4.949361,TotalEnergie,AC,22,1019 WV
702,e3dbeab9-d88d-4577-b116-0e90c8a95e59,Amsterdam,Cliffordstraat 7,TotalEnergie,52.383937,4.872982,TotalEnergie,AC,22,1035 JW
703,e3dc8512-4b0b-4189-8799-fabe46e17311,Weesp,Leeuwenveldseweg 5,TotalEnergie,52.312531,5.045046,TotalEnergie,AC,22,1382 LV
704,E484C7F2-F915-4537-B639-B554E6AFE819,Amsterdam,Hoogte Kadijk 195,TotalEnergie,52.367173,4.921662,TotalEnergie,AC,22,1018 BK
705,E503160D-FF0C-4B9A-A587-F397B49A76D0,Amsterdam,Roggeveenstraat 1,TotalEnergie,52.389503,4.888682,TotalEnergie,AC,22,1013 PP
706,e59bc91b-2897-4edb-92b9-d830f52bc7ac,Amsterdam,Torricellistraat 7,TotalEnergie,52.343135,4.923575,TotalEnergie,AC,22,1097 NZ
707,E65B5E13-C5BF-4584-A761-B00D18A4418B,Amsterdam,Cornelis Anthoniszstraat 70,TotalEnergie,52.353865,4.885936,TotalEnergie,AC,22,1071 VX
708,E68C7D16-D2B7-4BB6-A1B3-34D67AD29C71,Amsterdam,Zuid Hollandstraat 2,TotalEnergie,52.326757,4.871702,TotalEnergie,AC,22,1082 EK
709,E6F6CAC8-A624-4FD6-92A6-E4E4CC9FDD47,Amsterdam,Diemerparklaan 79,TotalEnergie,52.3566,4.997287,TotalEnergie,AC,22,1087 GN
710,E75FF80D-D1DF-4D04-A2C6-3B8B39C07CEF,Amsterdam,Maria Austriastraat 618,TotalEnergie,52.355332,4.99785,TotalEnergie,AC,22,1087 GL
711,E7C63EBD-B83F-4FA4-A15D-6D7696755912,Amsterdam,Jarmuiden 54,TotalEnergie,52.39101,4.790718,TotalEnergie,AC,22,1046 AE
712,E8009130-226C-4432-82CE-113EA199FEB1,Amsterdam,Schierstins 97,TotalEnergie,52.333482,4.875054,TotalEnergie,AC,22,1082 TE
713,E86A495A-BA87-498B-B82C-F76BF0EFED5A,Amsterdam,Busken Huetstraat 4,TotalEnergie,52.358932,4.856957,TotalEnergie,AC,22,1054 SZ
714,e87e5e7e-e985-486f-996c-7079bf59419b,Amsterdam,Hortusplantsoen 17,TotalEnergie,52.365929,4.907941,TotalEnergie,AC,22,1018 TZ
715,E92B7AD1-A14F-4940-BBC8-9B8B4B51EE1C,Amsterdam,Emanzana 11,TotalEnergie,52.324762,4.964473,TotalEnergie,AC,22,1003 AE
716,E9FAEC9B-4216-4D10-AABA-4D780A199CB8,Amsterdam,Pieter van der Doesstraat 132,TotalEnergie,52.373881,4.856138,TotalEnergie,AC,22,1056 VR
717,ea0fccb4-843c-4807-87da-e1c49285c3f0,Amsterdam,Hasebroekstraat 15,TotalEnergie,52.36627,4.866525,TotalEnergie,AC,22,1053 CL
718,EA517500-7333-4D52-8699-5690D939095A,Amsterdam,Meidoornweg 36,TotalEnergie,52.387293,4.911201,TotalEnergie,AC,22,1031 GH
719,EABEAB88-CB27-48D6-8421-BE18DBDC9864,Amsterdam,Jan Voermanstraat 60,TotalEnergie,52.368658,4.839281,TotalEnergie,AC,22,1061 XH
720,EAC58D87-E6FB-4456-8B04-CC196E56A3DF,Amsterdam,J.S. Ruppertstraat 33,TotalEnergie,52.352652,4.796574,TotalEnergie,AC,22,1069 KJ
721,eacb3a3f-767a-4884-8fe8-843fc1971a14,Amsterdam,Jekerstraat 45,TotalEnergie,52.345885,4.897393,TotalEnergie,AC,22,1078 LX
722,EB135DF1-D120-4D5E-B3C2-0C6CCFE3B2A3,Amsterdam,Beethovenstraat 186,TotalEnergie,52.342135,4.876438,TotalEnergie,AC,22,1077 JX
723,eb338a1f-3218-4ad8-8c67-e9f5b8793833,Amsterdam,Vertrouwen 12,TotalEnergie,52.355137,4.802071,TotalEnergie,AC,22,1068 RA
724,EBB352FE-8A88-47C9-939A-67E4F7FB26BE,Amsterdam,Kolfschotenstraat 290,TotalEnergie,52.315963,4.968239,TotalEnergie,AC,22,1104 PE
725,EBE40A40-FF3C-4E2D-8A63-D6FB5D6536B3,Amsterdam,Lambert Rimastraat 66,TotalEnergie,52.29955,4.999182,TotalEnergie,AC,22,1106 ZT
726,ec4a4fcd-8c8e-475e-95ed-2924a8c9a827,Amsterdam,Jan Maijenstraat 1,TotalEnergie,52.371195,4.853204,TotalEnergie,AC,22,1056 SE
727,EC576F02-DB78-4CFD-AC77-DD0F41351E9B,Amsterdam,Inzet 29,TotalEnergie,52.355383,4.803804,TotalEnergie,AC,22,1068 RC
728,ec71a17a-a18c-47b5-9bba-f361fb230f93,Amsterdam,Kattenburgerstraat 144,TotalEnergie,52.372658,4.918601,TotalEnergie,AC,22,1018 JG
729,EC7E6B9F-A4CC-4A7E-9098-DB3DE07E90DB,Amsterdam,Schotse Hooglanden 78,TotalEnergie,52.351565,4.76989,TotalEnergie,AC,22,1060 NM
730,ec888efc-97fb-495d-bb8f-343525ed4942,Amsterdam,Pasteurstraat 44,TotalEnergie,52.34837,4.937295,TotalEnergie,AC,22,1097 EV
731,ED1CC858-9C4E-42A1-9993-4FD5167AEC57,Amsterdam,Tweede Oosterparkstraat 2,TotalEnergie,52.355684,4.911846,TotalEnergie,AC,22,1091 JC
732,ED41F792-8DF5-486B-ADFA-B9A6E459EC12,Amsterdam,Derde Oosterparkstraat 82,TotalEnergie,52.356473,4.916702,TotalEnergie,AC,22,1091 KB
733,ED460F96-27AF-4B2E-A39C-A7B37C4D411E,Amsterdam,Westerstraat 36,TotalEnergie,52.378847,4.88524,TotalEnergie,AC,22,1015 MK
734,ed4f091e-4978-44e4-8509-f32169f32a69,Amsterdam,Reina Prinsen Geerligsstraat 2,TotalEnergie,52.379109,4.833014,TotalEnergie,AC,22,1063 XZ
735,EE254C02-FAD2-4B43-83DD-D75809A0D4FA,Amsterdam,Rustenburgerstraat 405,TotalEnergie,52.351276,4.890434,TotalEnergie,AC,22,1072 GW
736,EE4213B2-4B8B-40B9-819D-BDF8EAA2744B,Amsterdam,Radboud 20,TotalEnergie,52.326906,4.867656,TotalEnergie,AC,22,1081 AR
737,eeabfeb8-a726-4583-9747-dc8e424e230b,Amsterdam,Jacob Krüsestraat 19,TotalEnergie,52.30039,4.994948,TotalEnergie,AC,22,1106 ZK
738,eee0dc34-2fa2-47d9-a910-5f2807b47dc7,Amsterdam,Admiraliteitstraat 25,TotalEnergie,52.368367,4.923935,TotalEnergie,AC,22,1018 KP
739,EF7D3B3F-C2E0-4311-BB01-4F901FFD5C56,Amsterdam,Delistraat 8,TotalEnergie,52.365288,4.932167,TotalEnergie,AC,22,1094 CV
740,EF960356-D9FE-4B7A-83D3-D3263A9034EF,Weesp,Buitenveer 52,TotalEnergie,52.30848,5.03722,TotalEnergie,AC,22,1381 AE
741,EFE8319D-35FE-45FC-9671-12FA4D892C0F,Amsterdam,Doggersbankstraat 2,TotalEnergie,52.383948,4.850579,TotalEnergie,AC,22,1055 NX
742,effaed7f-fe2a-46ab-b349-4d98f3d8e95f,Amsterdam,Emfuleni 26,TotalEnergie,52.32355,4.963415,TotalEnergie,AC,22,1103 AS
743,F04FF4C3-4834-4E29-8371-0CD48EC64DD5,Amsterdam,Levantkade 167,TotalEnergie,52.376397,4.941913,TotalEnergie,AC,22,1019 MD
744,f07d2a57-e702-4188-b8ff-7f8cac1682d6,Amsterdam,Piet Gijzenbrugstraat 5,TotalEnergie,52.35084,4.846907,TotalEnergie,AC,22,1059 XD
745,F0B13AB1-E5D2-475D-A564-8DF64E5539B1,Amsterdam,Kortenakenstraat 40,TotalEnergie,52.343178,4.815885,TotalEnergie,AC,22,1066 HS
746,f11e73c5-11c5-4c03-a5fb-89b57d2a3c19,Weesp,s-Gravelandseweg 2,TotalEnergie,52.307095,5.049449,TotalEnergie,AC,22,1381 HH
747,F134D1E4-11D4-419F-B432-71C8218451C4,Amsterdam,Jonas Daniel Meijerplein 27,TotalEnergie,52.366908,4.905838,TotalEnergie,AC,22,1011 RG
748,F1360B0D-2409-4E5E-858B-062663F17C2D,Amsterdam,Hoekschewaardweg 182,TotalEnergie,52.392166,4.9312,TotalEnergie,AC,22,1025 PD
749,f1b74217-3bc3-421e-a02f-ea3551d91685,Amsterdam,Abraham Kuyperstraat 1,TotalEnergie,52.383279,4.801438,TotalEnergie,AC,22,1067 DE
750,F1C7B84E-BFDC-4028-970D-B91E2CFE2FDB,Amsterdam,Lodewijk Tripstraat 8,TotalEnergie,52.380203,4.876691,TotalEnergie,AC,22,1052 ES
751,f1f74553-7af7-4950-84bf-d03bb389c779,Amsterdam,Eerste Breeuwersstraat 30,TotalEnergie,52.386405,4.885104,TotalEnergie,AC,22,1013 MK
752,F2410BE1-77B7-4381-813F-3A0FD3B9AEDE,Amsterdam,Frans van Mierisstraat 136,TotalEnergie,52.353008,4.875841,TotalEnergie,AC,22,1071 SC
753,F292C95C-B54B-4DA8-AF31-A69777EC90BD,Amsterdam,Des Présstraat 8,TotalEnergie,52.350799,4.859714,TotalEnergie,AC,22,1075 NX
754,F29677DF-2BA7-4AC2-8AE9-2C7E6500E8BF,Amsterdam,Willem de Zwijgerlaan 126,TotalEnergie,52.374017,4.863533,TotalEnergie,AC,22,1056 JV
755,F2C41CD9-37CA-422F-B68D-A77D4A7C38D4,Amsterdam,Kleiburg 1,TotalEnergie,52.320099,4.978851,TotalEnergie,AC,22,1104 EA
756,F2E85CB9-23C5-48CE-8D3C-8CD108DCDFCE,Amsterdam,Rijswijkstraat 22,TotalEnergie,52.350096,4.838783,TotalEnergie,AC,22,1062 HW
757,F2E9CFDD-5E63-4591-B8D4-57EDDC884737,Amsterdam,Alberdingk Thijmstraat 5,TotalEnergie,52.365171,4.875407,TotalEnergie,AC,22,1054 AH
758,F3213673-07E9-4062-AA25-4AE8A12B0FAD,Amsterdam,Tollensstraat 127,TotalEnergie,52.365382,4.870168,TotalEnergie,AC,22,1053 RZ
759,F3D91E27-E3F8-4A3D-A997-5A4D98BFF0BA,Amsterdam,President Kennedylaan 132,TotalEnergie,52.340902,4.906875,TotalEnergie,AC,22,1079 NK
760,F40895E7-9EA1-4328-8652-9B1A419D3DF3,Amsterdam,Saskia van Uijlenburgkade 170,TotalEnergie,52.357127,4.847325,TotalEnergie,AC,22,1058 GA
761,F43BD1E6-A9C0-426B-8EA1-602807F2F474,Amsterdam,Rustenburgerstraat 343,TotalEnergie,52.351687,4.893478,TotalEnergie,AC,22,1072 GS
762,f4f48c4b-e8fe-4c45-956f-f8768c0cb222,Amsterdam,Jacob Paffstraat 40,TotalEnergie,52.351569,4.784477,TotalEnergie,AC,22,1069 PK
763,F561738F-723D-45D2-B088-DC458A252C7D,Amsterdam,Spanderswoudstraat 111,TotalEnergie,52.391257,4.957374,TotalEnergie,AC,22,1024 LA
764,F5B6C423-C2B3-4A77-A760-97437B121D33,Amsterdam,Lodewijk van Deysselstraat 91,TotalEnergie,52.377661,4.811481,TotalEnergie,AC,22,1064 HM
765,f5b98078-d94f-44e1-8898-7dcfa9b58a9b,Amsterdam,Hunzestraat 22,TotalEnergie,52.343602,4.905047,TotalEnergie,AC,22,1079 WD
766,f6a6e46d-2795-439a-bb79-a2c7257bdfdf,Amsterdam,Van Beuningenstraat 1,TotalEnergie,52.385392,4.878956,TotalEnergie,AC,22,1051 XC
767,F6DDC1EB-9D51-4467-BCBB-79085A39C3C8,Amsterdam,Daguerrestraat 113,TotalEnergie,52.359302,4.993112,TotalEnergie,AC,22,1087 DJ
768,f6ea67ad-b109-4c8d-898d-a2e181ca4461,Amsterdam,Antillenstraat 17,TotalEnergie,52.359366,4.851129,TotalEnergie,AC,22,1058 GX
769,f78f78a9-1aa6-4b6c-bf89-7bbc357dd927,Amsterdam,Nieuwe Kerkstraat 105,TotalEnergie,52.364505,4.907163,TotalEnergie,AC,22,1018 VJ
770,F82833FB-635C-4AF7-8BAE-9D0F6B42300D,Amsterdam,Wessel Gansfortstraat 20,TotalEnergie,52.372617,4.81067,TotalEnergie,AC,22,1064 NP
771,F851AD9E-D818-4810-A5C8-E0E7F9049461,Amsterdam,Polderweg 454,TotalEnergie,52.358266,4.932162,TotalEnergie,AC,22,1093 KP
772,F8A5472C-A248-45B3-9A6A-5BC03A09A47F,Amsterdam,Haarlemmer Houttuinen 43,TotalEnergie,52.381393,4.891334,TotalEnergie,AC,22,1013 GM
773,f94d2c9e-303d-44cc-9600-a0366533af46,Amsterdam,Hoofdweg 27,TotalEnergie,52.360129,4.852971,TotalEnergie,AC,22,1058 AW
774,F9C179E3-2607-4734-BCFB-4A658C1C830A,Amsterdam,Weesperzijde 159,TotalEnergie,52.345275,4.915613,TotalEnergie,AC,22,1097 DS
